City,Cloudiness,Country,Date,Humidity,Lat,Lng,Temp,Min Temp,Max Temp,Wind Speed
Belaya Gora,33,RU,1603459267,92,68.53,146.42,5.07,5.07,5.07,3.67
Luwuk,16,ID,1603459267,78,-0.95,122.79,78.93,78.93,78.93,0.47
Vaini,75,TO,1603459267,88,-21.2,-175.2,71.6,71.6,71.6,8.05
Huanren,0,CN,1603459267,88,41.26,125.37,31.23,31.23,31.23,2.71
Kiryat Gat,0,IL,1603458998,74,31.61,34.76,83.66,82.0,84.99,13.29
Tateyama,12,JP,1603459268,88,34.98,139.87,64.0,64.0,64.0,1.01
Avarua,100,CK,1603459268,88,-21.21,-159.78,71.6,71.6,71.6,10.29
Nānākuli,90,US,1603459269,78,21.39,-158.15,76.8,71.6,80.6,11.41
Busselton,0,AU,1603459269,47,-33.65,115.33,55.18,54.0,55.99,13.91
Erdenet,0,MN,1603459269,82,49.03,104.08,33.84,33.84,33.84,1.79
Wamba,12,NG,1603459270,39,8.93,8.6,91.4,91.4,91.4,3.51
Mar del Plata,90,AR,1603458650,100,-38.0,-57.56,56.05,55.0,57.2,3.36
Dhidhdhoo,3,MV,1603459270,80,6.88,73.1,81.73,81.73,81.73,15.48
Portland,20,US,1603459261,86,45.52,-122.68,38.91,35.6,41.0,3.36
Havre-St-Pierre,75,CA,1603459271,74,50.23,-63.6,33.8,33.8,33.8,2.24
Puerto Ayora,100,EC,1603459271,94,-0.74,-90.35,68.0,68.0,68.0,1.01
Hobart,75,AU,1603459108,81,-42.88,147.33,53.22,51.01,54.0,1.12
Arraial do Cabo,40,BR,1603458998,57,-22.97,-42.03,77.0,77.0,77.0,10.29
Hermanus,21,ZA,1603459272,69,-34.42,19.23,75.99,75.99,75.99,5.01
Klyuchi,36,RU,1603459272,74,52.27,79.17,34.57,34.57,34.57,7.2
Berlevåg,75,NO,1603459272,86,70.86,29.09,36.1,33.8,37.4,39.15
Bredasdorp,93,ZA,1603459273,64,-34.53,20.04,75.2,75.2,75.2,10.29
Klaksvík,75,FO,1603459273,93,62.23,-6.59,46.4,46.4,46.4,12.75
Tonaya,20,MX,1603459273,83,19.78,-103.97,71.6,71.6,71.6,0.78
Jishou,95,CN,1603459273,72,28.32,109.72,60.19,60.19,60.19,4.63
Fukuechō,0,JP,1603459274,69,32.69,128.84,61.38,61.38,61.38,23.87
Matthews,99,US,1603459162,99,35.12,-80.72,63.23,62.01,64.0,2.8
Zinder,0,NE,1603459274,8,13.81,8.99,100.4,100.4,100.4,13.87
Nuuk,75,GL,1603459274,63,64.18,-51.72,28.2,28.0,28.4,13.87
Albany,36,US,1603458801,91,42.6,-73.97,62.11,61.0,63.0,1.99
Pápa,75,HU,1603459275,93,47.33,17.47,51.8,51.8,51.8,4.7
High Level,75,CA,1603459275,92,58.52,-117.14,19.4,19.4,19.4,2.24
Mahébourg,20,MU,1603459275,57,-20.41,57.7,78.8,78.8,78.8,10.29
Ushuaia,40,AR,1603459276,70,-54.8,-68.3,42.8,42.8,42.8,11.41
Petropavlovsk-Kamchatskiy,90,RU,1603459276,100,53.05,158.65,33.8,33.8,33.8,6.71
Saint Paul Harbor,90,US,1603459276,93,57.79,-152.41,44.6,44.6,44.6,27.51
Hofn,75,IS,1603459277,76,64.25,-15.21,48.2,48.2,48.2,13.87
Tiksi,100,RU,1603459277,91,71.69,128.87,18.48,18.48,18.48,8.48
Sørkjosen,100,NO,1603459278,90,69.8,20.93,33.84,33.84,33.84,3.53
Port Alfred,47,ZA,1603459278,69,-33.59,26.89,77.45,77.45,77.45,17.52
Camalú,96,MX,1603459278,70,30.85,-116.07,55.99,55.99,55.99,2.77
Whitehorse,75,CA,1603459278,78,60.72,-135.05,8.94,8.01,10.99,6.93
Rikitea,41,PF,1603459279,79,-23.12,-134.97,74.01,74.01,74.01,3.31
Funadhoo,51,MV,1603459279,79,6.15,73.27,82.42,82.42,82.42,15.86
Diveyevo,100,RU,1603459279,84,55.04,43.24,51.1,51.1,51.1,9.57
Tautira,75,PF,1603459279,88,-17.73,-149.15,73.2,73.0,73.4,3.36
Bereda,99,ES,1603459280,71,43.27,-7.54,58.05,57.0,59.0,15.99
Hilo,1,US,1603458770,78,19.73,-155.09,70.9,69.01,73.4,5.82
Provideniya,100,RU,1603459280,89,64.38,-173.3,34.39,34.39,34.39,14.09
Carnarvon,0,AU,1603459281,83,-24.87,113.63,71.6,71.6,71.6,14.99
La Ronge,75,CA,1603459281,79,55.1,-105.28,19.4,19.4,19.4,6.93
Marshfield,90,US,1603459147,97,44.67,-90.17,36.1,35.6,37.0,12.75
Arlit,0,NE,1603459281,8,18.74,7.39,97.0,97.0,97.0,27.36
Kavaratti,99,IN,1603459282,74,10.57,72.64,81.48,81.48,81.48,16.62
New Norfolk,100,AU,1603459282,79,-42.78,147.06,52.5,51.01,54.0,1.03
Ferme-Neuve,100,CA,1603459283,94,46.7,-75.45,45.99,45.99,45.99,4.21
Port Macquarie,97,AU,1603459283,87,-31.43,152.92,66.99,66.99,66.99,15.64
Punta Arenas,75,CL,1603458815,81,-53.15,-70.92,44.29,44.01,44.6,4.7
Dali,100,CN,1603459284,85,25.7,100.18,47.5,47.5,47.5,1.92
Cidreira,100,BR,1603459108,81,-30.18,-50.21,70.21,70.21,70.21,13.13
Thompson,90,CA,1603459284,79,55.74,-97.86,19.4,19.4,19.4,14.99
Nikolskoye,90,RU,1603458801,87,59.7,30.79,51.93,51.8,52.0,8.95
Saint-Philippe,90,RE,1603459285,69,-21.36,55.77,72.48,64.99,77.0,16.11
Sheopur,0,IN,1603459286,28,25.67,76.7,82.63,82.63,82.63,4.07
Yellowknife,90,CA,1603459286,92,62.46,-114.35,21.11,21.0,21.2,4.7
Butaritari,68,KI,1603459286,73,3.07,172.79,82.0,82.0,82.0,12.19
Catuday,100,PH,1603459286,84,16.29,119.81,79.16,79.16,79.16,4.63
Radomsko,98,PL,1603459287,74,51.07,19.44,57.0,57.0,57.0,5.88
Pangai,75,TO,1603459288,83,-19.8,-174.35,75.2,75.2,75.2,12.75
Qaanaaq,100,GL,1603459288,92,77.48,-69.36,20.55,20.55,20.55,8.34
Bukama,93,CD,1603459289,30,-9.2,25.85,98.53,98.53,98.53,2.08
Camocim,29,BR,1603459289,50,-2.9,-40.84,89.24,89.24,89.24,13.49
Kodinsk,86,RU,1603459289,96,58.69,99.18,30.0,30.0,30.0,3.6
Luziânia,75,BR,1603459012,83,-16.25,-47.95,72.36,71.6,73.0,9.17
Iqaluit,75,CA,1603459290,86,63.75,-68.51,26.29,26.01,26.6,2.24
Barrow,90,US,1603459290,98,71.29,-156.79,32.0,32.0,32.0,10.29
Kushima,20,JP,1603459291,58,31.46,131.23,55.69,53.01,59.0,18.34
Tyret’ Pervaya,100,RU,1603459291,87,53.67,102.31,40.33,40.33,40.33,3.74
Saint-Pierre,90,RE,1603459291,69,-21.34,55.48,72.66,64.99,77.0,16.11
Havøysund,75,NO,1603459291,93,71.0,24.66,37.36,35.6,39.2,31.09
Souillac,20,MU,1603459292,57,-20.52,57.52,78.8,78.8,78.8,10.29
Pincher Creek,90,CA,1603459292,85,49.48,-113.95,12.2,12.2,12.2,3.36
Tasiilaq,75,GL,1603459292,40,65.61,-37.64,37.4,37.4,37.4,18.34
Praia da Vitória,40,PT,1603459293,72,38.73,-27.07,68.0,68.0,68.0,8.84
Greater Sudbury,90,CA,1603459088,100,46.49,-80.99,38.75,37.0,41.0,14.99
Atuona,1,PF,1603459293,77,-9.8,-139.03,77.49,77.49,77.49,15.48
Cabo San Lucas,5,MX,1603459185,78,22.89,-109.91,75.2,75.2,75.2,11.41
Cape Town,0,ZA,1603459291,60,-33.93,18.42,72.16,70.0,73.4,9.17
Jamestown,20,US,1603458672,93,42.1,-79.24,56.7,55.4,57.99,6.93
Fortuna,1,US,1603459087,93,40.6,-124.16,39.2,39.2,39.2,4.7
Khatanga,100,RU,1603459294,95,71.97,102.5,6.42,6.42,6.42,10.02
Castro,8,BR,1603459295,66,-24.79,-50.01,69.8,69.8,69.8,10.69
Jalu,0,LY,1603459295,30,29.03,21.55,79.11,79.11,79.11,12.46
Tuatapere,59,NZ,1603459295,79,-46.13,167.68,54.0,54.0,54.0,7.0
Grindavik,75,IS,1603459295,70,63.84,-22.43,44.6,44.6,44.6,28.86
Ponta do Sol,20,PT,1603459296,56,32.67,-17.1,70.68,70.0,71.6,14.99
Haines Junction,0,CA,1603459296,87,60.75,-137.51,16.92,16.92,16.92,1.86
Byron Bay,100,AU,1603459201,83,-28.65,153.62,68.4,66.2,69.8,11.41
Honiara,20,SB,1603459297,94,-9.43,159.95,75.2,75.2,75.2,2.24
Bandrele,0,YT,1603459297,70,-12.91,45.19,84.2,84.2,84.2,8.05
Nome,1,US,1603459297,34,64.5,-165.41,34.0,33.01,35.6,9.17
Leningradskiy,0,RU,1603459298,91,69.38,178.42,24.96,24.96,24.96,4.27
Kapaa,26,US,1603459298,79,22.08,-159.32,71.01,71.01,71.01,8.99
Talnakh,40,RU,1603459298,84,69.49,88.4,-2.2,-2.2,-2.2,11.18
Rosarito,90,MX,1603459298,59,32.33,-117.03,65.55,64.4,66.2,1.21
Yulara,0,AU,1603459211,43,-25.24,130.99,69.8,69.8,69.8,12.75
Wenshang,0,CN,1603459299,42,35.73,116.5,50.29,50.29,50.29,3.33
Tuktoyaktuk,90,CA,1603459299,92,69.45,-133.04,26.6,26.6,26.6,19.46
Peleduy,100,RU,1603459300,91,59.63,112.74,38.57,38.57,38.57,8.99
Namatanai,0,PG,1603459300,70,-3.67,152.43,80.31,80.31,80.31,4.61
Norman Wells,90,CA,1603459300,92,65.28,-126.83,19.4,19.4,19.4,2.24
Bayan,0,CN,1603459300,87,46.08,127.4,31.01,31.01,31.01,10.0
Mataura,99,NZ,1603459301,79,-46.19,168.86,54.0,54.0,54.0,7.0
Grand Gaube,1,MU,1603459301,55,-20.01,57.66,78.01,78.01,78.01,10.0
Shingū,0,JP,1603459301,72,33.73,135.98,56.05,56.05,56.05,8.41
Chui,100,UY,1603459302,91,-33.7,-53.46,65.64,65.64,65.64,7.56
Chifeng,0,CN,1603459302,65,42.27,118.96,38.84,38.84,38.84,3.4
Hervey Bay,100,AU,1603459269,78,-25.3,152.85,73.4,71.6,73.99,9.17
Uberaba,87,BR,1603459098,74,-19.75,-47.93,73.49,73.49,73.49,15.99
Lorengau,45,PG,1603459303,69,-2.02,147.27,82.72,82.72,82.72,4.5
Lüderitz,4,NA,1603459303,67,-26.65,15.16,65.79,65.79,65.79,7.45
Erzin,0,TR,1603459303,23,36.96,36.2,91.0,91.0,91.0,4.34
Simbahan,95,PH,1603459304,75,6.3,120.58,83.62,83.62,83.62,5.7
Belmonte,90,BR,1603459304,88,-15.86,-38.88,73.4,73.4,73.4,2.24
Kaabong,92,UG,1603459304,44,3.48,34.15,80.01,80.01,80.01,12.8
Sumbuya,95,SL,1603459304,63,7.65,-11.96,87.39,87.39,87.39,4.18
Bluff,100,NZ,1603459305,79,-46.6,168.33,54.0,54.0,54.0,7.0
Longyearbyen,20,SJ,1603459160,79,78.22,15.64,19.4,19.4,19.4,2.24
Vardø,75,NO,1603459192,86,70.37,31.11,39.2,39.2,39.2,39.15
Tazovsky,95,RU,1603459305,97,67.47,78.7,19.15,19.15,19.15,9.06
Lavrentiya,20,RU,1603459014,91,65.58,-171.0,33.93,33.93,33.93,11.45
Bengkulu,100,ID,1603459306,82,-3.8,102.27,79.88,79.88,79.88,3.11
Husavik,90,IS,1603459306,70,66.04,-17.34,42.8,42.8,42.8,9.17
Sciacca,19,IT,1603459307,74,37.51,13.09,68.0,66.99,69.01,7.0
Kismayo,5,SO,1603459307,72,-0.36,42.55,83.68,83.68,83.68,19.19
Great Bend,90,US,1603459307,80,38.36,-98.76,34.66,33.01,35.6,24.16
Buala,39,SB,1603459308,80,-8.14,159.59,80.29,80.29,80.29,5.35
Port Hedland,0,AU,1603459308,83,-20.32,118.57,75.2,75.2,75.2,10.29
Minot,1,US,1603459308,78,48.23,-101.3,12.63,10.99,14.0,12.75
Hong Kong,100,HK,1603459031,44,22.29,114.16,73.87,63.0,77.0,1.01
Hithadhoo,0,MV,1603459309,75,-0.6,73.08,83.66,83.66,83.66,13.56
Richards Bay,0,ZA,1603459309,60,-28.78,32.04,80.26,80.26,80.26,16.28
Faanui,100,PF,1603459309,73,-16.48,-151.75,78.55,78.55,78.55,7.31
Te Anau,98,NZ,1603459309,82,-45.42,167.72,45.32,45.32,45.32,3.47
Padang,100,ID,1603459310,79,-0.95,100.35,81.07,81.07,81.07,2.26
Torbay,75,CA,1603459310,80,47.67,-52.73,42.66,41.0,44.01,9.17
Nouadhibou,94,MR,1603459310,43,20.93,-17.03,87.8,87.8,87.8,18.34
Tocopilla,9,CL,1603459310,51,-22.09,-70.2,67.32,67.32,67.32,7.47
Broome,75,US,1603459311,93,42.25,-75.83,62.6,60.8,64.0,8.05
Daru,28,PG,1603459311,83,-9.08,143.21,79.18,79.18,79.18,11.61
Mount Gambier,90,AU,1603459311,87,-37.83,140.77,53.6,53.6,53.6,18.34
Nanortalik,100,GL,1603459312,84,60.14,-45.24,34.02,34.02,34.02,13.2
Ipixuna,40,BR,1603459312,74,-1.76,-48.8,82.4,82.4,82.4,9.17
Mossamedes,40,AO,1603459312,58,-15.2,12.15,84.2,84.2,84.2,18.34
Margate,100,GB,1603459313,78,51.38,1.39,60.69,59.0,62.01,4.0
Alofi,100,NU,1603459313,94,-19.06,-169.92,75.2,75.2,75.2,5.82
Wajir,76,KE,1603459314,28,1.75,40.06,97.36,97.36,97.36,13.13
Lambaré,0,PY,1603459314,38,-25.35,-57.61,91.4,91.4,91.4,12.75
Coyhaique,90,CL,1603459314,70,-45.58,-72.07,46.4,46.4,46.4,5.82
Kontagora,90,NG,1603459314,22,10.4,5.47,93.94,93.94,93.94,7.45
Coquimbo,90,CL,1603459315,100,-29.95,-71.34,51.8,51.8,51.8,6.93
Uren',100,RU,1603459318,95,57.46,45.79,39.47,39.47,39.47,11.34
Ribeira Grande,40,PT,1603459318,64,38.52,-28.7,69.8,69.8,69.8,10.29
Salacgrīva,69,LV,1603459319,89,57.75,24.36,52.0,52.0,52.0,7.0
Savannah Bight,100,HN,1603459319,74,16.45,-85.85,82.67,82.67,82.67,8.77
Najrān,0,SA,1603459319,11,17.49,44.13,86.0,86.0,86.0,6.93
Redlands,90,US,1603459320,68,34.06,-117.18,58.77,48.99,64.4,4.7
Ihosy,0,MG,1603459320,32,-22.4,46.12,84.09,84.09,84.09,13.6
Kachug,0,RU,1603459320,90,53.96,105.88,33.39,33.39,33.39,1.92
São Filipe,2,CV,1603459320,70,14.9,-24.5,81.93,81.93,81.93,9.04
Saint George,1,US,1603459321,26,37.1,-113.58,48.06,48.0,48.2,8.05
Mbanza-Ngungu,38,CD,1603459321,50,-5.25,14.87,89.56,89.56,89.56,2.64
Henties Bay,26,NA,1603459321,80,-22.12,14.28,64.99,64.99,64.99,11.34
Arrondissement de Saumur,75,FR,1603459321,59,47.33,-0.25,65.77,64.4,66.99,13.87
Promyshlennyy,100,RU,1603459322,98,67.58,63.92,21.09,21.09,21.09,7.07
Naze,90,JP,1603459322,60,28.37,129.48,71.6,71.6,71.6,21.92
Narsaq,75,GL,1603459322,63,60.92,-46.05,26.6,26.6,26.6,3.36
Jamapa,20,MX,1603459323,94,19.03,-96.23,74.75,73.4,75.99,2.33
Sioux Lookout,90,CA,1603459323,92,50.1,-91.92,21.2,21.2,21.2,2.93
Palana,0,RU,1603459324,90,59.12,159.97,34.09,34.09,34.09,3.74
Maniitsoq,3,GL,1603459324,83,65.42,-52.9,28.24,28.24,28.24,7.4
Coahuayana Viejo,20,MX,1603459324,83,18.73,-103.68,71.6,71.6,71.6,2.04
Mildura,90,AU,1603459324,93,-34.2,142.15,62.78,62.6,63.0,5.82
Uglovskoye,51,RU,1603459325,72,51.36,80.19,36.73,36.73,36.73,5.7
Lata,49,PT,1603459325,71,40.16,-8.33,60.01,60.01,60.01,4.0
Bambous Virieux,20,MU,1603459326,57,-20.34,57.76,78.42,78.01,78.8,10.29
Westport,90,US,1603459145,93,41.14,-73.36,63.0,62.01,64.4,5.82
Sarakhs,0,IR,1603459326,30,36.54,61.16,68.0,68.0,68.0,6.73
Shitkino,100,RU,1603459326,78,56.37,98.35,37.6,37.6,37.6,2.08
Kavieng,12,PG,1603459327,67,-2.57,150.8,82.51,82.51,82.51,8.55
Tabou,77,CI,1603459327,85,4.42,-7.35,80.11,80.11,80.11,8.68
Cherskiy,32,RU,1603459327,94,68.75,161.3,18.79,18.79,18.79,7.23
Knysna,20,ZA,1603459328,73,-34.04,23.05,73.4,73.4,73.4,13.87
Pevek,0,RU,1603459328,95,69.7,170.31,27.28,27.28,27.28,11.81
Baghdad,0,IQ,1603459080,16,33.34,44.4,95.0,95.0,95.0,12.75
Ampanihy,100,MG,1603459329,12,-24.7,44.75,99.79,99.79,99.79,8.99
Naryan-Mar,99,RU,1603459329,95,67.67,53.09,22.06,22.06,22.06,7.63
Fort Saint James,100,CA,1603459329,94,54.43,-124.25,20.16,20.16,20.16,4.83
Marawi,100,PH,1603459330,93,8.0,124.29,73.99,73.99,73.99,5.99
Baiyin,0,CN,1603459330,57,36.56,104.21,50.0,50.0,50.0,6.71
East London,0,ZA,1603459330,78,-33.02,27.91,75.2,75.2,75.2,6.93
Bam,0,IR,1603459330,21,29.11,58.36,71.98,71.98,71.98,14.34
Iranshahr,0,IR,1603459331,8,27.2,60.68,87.8,87.8,87.8,11.41
Bethel,90,US,1603459331,100,41.37,-73.41,62.51,62.01,63.0,3.36
Tessalit,0,ML,1603459331,8,20.2,1.01,100.53,100.53,100.53,15.48
Pangnirtung,90,CA,1603459332,86,66.15,-65.71,26.6,26.6,26.6,2.24
George Town,20,MY,1603459327,74,5.41,100.34,82.2,82.0,82.4,3.36
Indian Head,90,US,1603459332,100,38.6,-77.16,63.01,62.6,64.0,3.13
Vostok,100,RU,1603459333,99,46.49,135.88,23.95,23.95,23.95,14.23
Saskylakh,100,RU,1603459333,97,71.92,114.08,19.8,19.8,19.8,12.41
Khoy,0,IR,1603459130,25,38.55,44.95,70.56,70.56,70.56,6.04
Strezhevoy,75,RU,1603459333,79,60.73,77.59,21.2,21.2,21.2,6.71
Porto-Novo,40,BJ,1603459334,74,6.5,2.6,86.0,86.0,86.0,16.11
Simpang,99,ID,1603459334,84,-1.27,104.08,76.82,76.82,76.82,2.1
Olafsvik,100,IS,1603459334,66,64.89,-23.71,43.14,43.14,43.14,34.99
Ambilobe,98,MG,1603459334,38,-13.2,49.05,88.7,88.7,88.7,2.98
Beringovskiy,4,RU,1603459334,89,63.05,179.32,34.54,34.54,34.54,18.63
Bandarbeyla,0,SO,1603459335,72,9.49,50.81,80.51,80.51,80.51,9.62
Båtsfjord,75,NO,1603459335,91,70.63,29.72,35.13,33.8,37.4,35.57
Cockburn Town,45,TC,1603459161,77,21.46,-71.14,82.74,82.74,82.74,16.98
Eureka,1,US,1603459092,93,40.8,-124.16,38.28,37.4,39.2,3.22
Igarka,98,RU,1603459336,95,67.47,86.58,7.18,7.18,7.18,7.0
Lebu,100,CL,1603459336,66,-37.62,-73.65,51.62,51.62,51.62,2.84
Hokitika,78,NZ,1603459336,89,-42.72,170.97,48.15,48.15,48.15,3.87
Vanavara,89,RU,1603459336,96,60.34,102.28,28.74,28.74,28.74,7.94
Airai,67,TL,1603459337,100,-8.93,125.41,64.53,64.53,64.53,1.23
Skibbereen,75,IE,1603459337,66,51.55,-9.27,51.8,51.8,51.8,9.17
Natal,75,BR,1603459337,83,-5.79,-35.21,82.4,82.4,82.4,13.87
Acapulco de Juárez,40,MX,1603459249,94,16.86,-99.89,77.0,77.0,77.0,3.31
Kualakapuas,90,ID,1603459088,88,-3.01,114.39,78.8,78.8,78.8,6.93
Half Moon Bay,20,US,1603459060,87,37.46,-122.43,54.32,51.01,57.2,5.82
Codrington,100,AU,1603459338,90,-38.27,141.97,53.69,53.69,53.69,14.92
Horsham,20,GB,1603459338,77,51.06,-0.33,59.49,59.0,60.8,11.41
Kruisfontein,0,ZA,1603459339,68,-34.0,24.73,75.99,75.99,75.99,10.0
Chapais,90,CA,1603459047,100,49.78,-74.85,30.2,30.2,30.2,10.29
Três Lagoas,0,BR,1603459093,48,-20.75,-51.68,86.5,86.5,86.5,10.78
Mitsamiouli,88,KM,1603459340,72,-11.38,43.28,80.96,80.96,80.96,5.17
Belz,100,FR,1603459340,74,47.68,-3.17,59.68,59.0,60.01,10.0
Rivadavia,0,AR,1603459089,49,-33.19,-68.46,68.0,68.0,68.0,5.82
Bouna,77,CI,1603459340,31,9.27,-3.0,94.42,94.42,94.42,6.71
Katobu,19,ID,1603459341,83,-4.94,122.53,78.53,78.53,78.53,4.61
Barranca,98,PE,1603459341,81,-10.75,-77.77,63.59,63.59,63.59,6.33
Ayan,95,RU,1603459341,88,56.45,138.17,30.96,30.96,30.96,12.57
Aklavik,90,CA,1603459341,86,68.22,-135.01,30.2,30.2,30.2,2.24
Ahipara,25,NZ,1603459342,93,-35.17,173.17,58.55,58.55,58.55,5.35
Sola,96,VU,1603459342,86,-13.88,167.55,78.08,78.08,78.08,22.32
Salinópolis,96,BR,1603459342,66,-0.61,-47.36,84.09,84.09,84.09,12.33
Washington,100,US,1603459310,78,47.5,-120.5,34.32,33.01,36.0,1.5
Pisco,75,PE,1603459343,82,-13.7,-76.22,64.65,64.4,64.99,3.36
Kaitangata,100,NZ,1603459343,89,-46.28,169.85,51.12,51.12,51.12,2.75
Dikson,100,RU,1603459343,94,73.51,80.55,23.54,23.54,23.54,15.1
Saint-François,99,FR,1603459344,72,46.42,3.91,64.4,64.4,64.4,8.05
Nanyang,0,CN,1603459344,43,32.99,112.53,57.67,57.67,57.67,5.39
Amarillo,90,US,1603459202,69,35.22,-101.83,34.09,32.0,35.6,27.51
Birnin Kebbi,0,NG,1603459344,9,12.45,4.2,100.72,100.72,100.72,13.71
Jiayuguan City,41,CN,1603459345,47,39.82,98.3,45.19,45.19,45.19,3.04
Maceió,75,BR,1603459067,69,-9.67,-35.74,82.4,82.4,82.4,11.41
Ust-Nera,98,RU,1603459345,93,64.57,143.2,21.9,21.9,21.9,2.35
Cam Ranh,40,VN,1603459346,78,11.92,109.16,82.4,82.4,82.4,9.17
Korla,0,CN,1603459346,39,41.76,86.15,50.76,50.76,50.76,2.35
Anadyr,90,RU,1603459346,100,64.75,177.48,23.0,23.0,23.0,6.71
Katsuura,75,JP,1603459347,88,35.13,140.3,64.54,64.0,66.2,6.93
Evanston,90,US,1603459347,93,42.04,-87.69,58.91,55.4,64.0,10.29
Port Elizabeth,20,ZA,1603459347,73,-33.92,25.57,73.4,73.4,73.4,20.8
La Mesa,90,US,1603459164,68,32.77,-117.02,63.95,60.01,68.0,4.7
Quepos,0,CR,1603459348,83,9.42,-84.17,71.15,69.8,72.0,2.24
Batagay,100,RU,1603459348,89,67.63,134.63,4.08,4.08,4.08,5.5
Sri Aman,100,MY,1603459348,94,1.24,111.46,77.0,77.0,77.0,2.19
Samarai,86,PG,1603459349,86,-10.62,150.67,80.44,80.44,80.44,8.16
Lakes Entrance,100,AU,1603459349,96,-37.88,147.98,61.0,60.01,62.01,1.14
Constitución,0,CL,1603459349,63,-35.33,-72.42,58.64,58.64,58.64,7.38
Ilulissat,75,GL,1603459350,67,69.22,-51.1,19.4,19.4,19.4,6.93
Noyabrsk,70,RU,1603459350,96,63.2,75.45,18.01,18.01,18.01,6.87
Awjilah,0,LY,1603459350,32,29.11,21.29,78.87,78.87,78.87,11.83
Wajima,39,JP,1603459350,72,37.4,136.9,56.39,56.39,56.39,20.58
Islamkot,0,PK,1603459351,17,24.7,70.18,90.03,90.03,90.03,5.86
Riyadh,0,SA,1603459285,10,24.69,46.72,89.6,89.6,89.6,13.87
Northam,97,GB,1603459352,78,51.03,-4.22,55.31,54.0,57.99,7.0
Pacific Grove,90,US,1603459352,82,36.62,-121.92,57.47,55.99,59.0,8.05
Birin,33,NP,1603459353,100,26.89,88.07,59.18,59.18,59.18,2.33
Geraldton,0,AU,1603459353,64,-28.77,114.6,68.0,68.0,68.0,17.22
Sahuaripa,0,MX,1603459353,66,29.05,-109.23,66.85,66.85,66.85,3.29
Mandalgovi,98,MN,1603459353,54,45.76,106.27,40.77,40.77,40.77,8.21
Saldanha,24,ZA,1603459354,68,-33.01,17.94,68.0,68.0,68.0,6.93
Mortka,9,RU,1603459354,96,59.33,66.02,22.23,22.23,22.23,4.83
Kamenka,100,RU,1603459354,56,51.32,42.77,62.01,62.01,62.01,8.16
La Reforma,0,MX,1603459355,91,25.08,-108.05,73.58,71.01,77.0,3.0
Santa Isabel Rio Negro,99,BR,1603459355,84,-0.41,-65.02,78.87,78.87,78.87,3.29
Iracoubo,39,GF,1603459355,67,5.48,-53.2,85.41,85.41,85.41,8.88
Cabedelo,75,BR,1603459356,88,-6.98,-34.83,80.6,80.6,80.6,12.75
Atar,92,MR,1603459356,13,20.52,-13.05,96.82,96.82,96.82,10.36
Donskoye,0,RU,1603459356,34,45.46,41.97,66.2,66.2,66.2,6.71
Laguna,1,US,1603459357,32,38.42,-121.42,50.56,48.0,55.4,5.82
Kahului,1,US,1603459188,65,20.89,-156.47,74.84,71.01,78.8,11.41
West Odessa,1,US,1603459357,70,31.84,-102.5,48.13,48.0,48.2,17.22
Carbondale,40,US,1603459185,83,37.73,-89.22,67.91,66.2,69.8,10.29
The Valley,20,AI,1603459358,79,18.22,-63.06,85.46,84.2,87.01,13.87
Tommot,24,RU,1603459358,91,58.96,126.29,14.52,14.52,14.52,3.0
Yerbogachën,0,RU,1603459358,95,61.28,108.01,27.46,27.46,27.46,7.65
Balkanabat,0,TM,1603459359,37,39.51,54.37,67.33,67.33,67.33,10.29
Umm Kaddadah,0,SD,1603459359,9,13.6,26.69,96.98,96.98,96.98,8.93
Arkhara,100,RU,1603459359,94,49.42,130.08,31.95,31.95,31.95,15.77
Koróni,0,GR,1603459360,44,36.8,21.95,75.09,75.0,75.2,8.05
Yumbe,100,UG,1603459360,81,3.47,31.25,77.09,77.09,77.09,5.28
Villamontes,20,BO,1603459360,83,-21.25,-63.5,82.4,82.4,82.4,3.83
Kefamenanu,16,ID,1603459360,87,-9.45,124.48,75.72,75.72,75.72,2.26
Peniche,44,PT,1603459361,73,39.36,-9.38,65.34,64.0,66.99,7.0
Nizhniy Kuranakh,59,RU,1603459361,91,58.84,125.49,17.94,17.94,17.94,2.62
Nelson,65,NZ,1603459361,80,-41.28,173.28,51.01,51.01,51.01,1.99
Price,1,US,1603459361,23,39.6,-110.81,39.2,39.2,39.2,12.75
Nabire,89,ID,1603459362,82,-3.37,135.48,77.45,77.45,77.45,3.4
Guerrero Negro,83,MX,1603459362,79,27.98,-114.06,65.66,65.66,65.66,7.9
Tual,79,ID,1603459362,81,-5.67,132.75,82.69,82.69,82.69,10.45
Vao,4,NC,1603459362,87,-22.67,167.48,73.76,73.76,73.76,20.47
Abnūb,0,EG,1603459363,40,27.27,31.15,87.8,87.8,87.8,12.75
Wahlstedt,98,DE,1603459363,82,53.95,10.22,55.98,55.0,57.0,1.01
Sar-e Pul,4,AF,1603459363,78,35.83,66.17,36.68,36.68,36.68,3.0
Rongcheng,0,CN,1603459364,62,30.63,117.85,53.11,53.11,53.11,4.18
Bac Lieu,100,VN,1603459364,86,9.29,105.72,78.06,78.06,78.06,6.31
Iquitos,75,PE,1603459364,83,-3.75,-73.25,78.8,78.8,78.8,1.12
Takoradze,99,GH,1603459364,75,4.88,-1.76,82.54,82.54,82.54,9.06
Mananjary,12,MG,1603459364,67,-21.22,48.33,77.76,77.76,77.76,6.62
Rocha,96,UY,1603459365,89,-34.48,-54.33,65.98,65.98,65.98,6.96
Muzhi,8,RU,1603459365,94,65.37,64.67,19.11,19.11,19.11,5.84
Scottsbluff,90,US,1603459365,85,41.87,-103.67,22.62,19.99,24.8,5.82
Ikom,99,NG,1603459365,64,5.97,8.71,87.15,87.15,87.15,3.33
Tabuan,75,PH,1603459366,83,9.52,122.85,80.6,80.6,80.6,4.7
Kasane,0,BW,1603459366,14,-17.82,25.15,96.8,96.8,96.8,16.11
Umluj,0,SA,1603459366,38,25.02,37.27,89.65,89.65,89.65,9.64
Bireun,100,ID,1603459367,86,5.2,96.7,79.29,79.29,79.29,7.43
Maamba,81,ZM,1603459367,16,-17.37,27.15,94.91,94.91,94.91,8.14
Srednekolymsk,29,RU,1603459367,90,67.45,153.68,14.18,14.18,14.18,1.07
Isangel,100,VU,1603459367,78,-19.55,169.27,74.16,74.16,74.16,17.78
Kumluca,0,TR,1603459368,39,36.37,30.29,79.45,79.45,79.45,5.1
Jining,0,CN,1603459368,41,35.41,116.58,51.1,51.1,51.1,3.87
Hobyo,90,SO,1603459368,75,5.35,48.53,83.19,83.19,83.19,20.62
Havelock,20,US,1603459368,83,34.88,-76.9,69.69,66.99,72.0,6.49
Adrar,0,MR,1603459369,11,20.5,-10.07,94.89,94.89,94.89,5.21
Grants,1,US,1603459122,64,35.15,-107.85,33.8,33.8,33.8,4.21
Diego de Almagro,0,CL,1603459369,27,-26.37,-70.05,70.5,70.5,70.5,4.03
Smithers,90,CA,1603459369,79,54.78,-127.17,23.0,23.0,23.0,5.82
Flinders,100,AU,1603459370,87,-34.58,150.86,66.99,66.99,66.99,1.01
Kerman,0,IR,1603459370,13,30.28,57.08,69.8,69.8,69.8,11.41
Xam Nua,100,LA,1603459370,64,20.42,104.04,56.86,56.86,56.86,1.83
Sørland,40,NO,1603459328,75,67.67,12.69,41.0,41.0,41.0,17.22
Ostrovnoy,100,RU,1603459371,98,68.05,39.51,31.14,31.14,31.14,16.15
San Quintín,100,MX,1603459371,75,30.48,-115.95,63.99,63.99,63.99,4.59
Bodden Town,40,KY,1603459371,94,19.28,-81.25,80.87,80.6,81.0,18.16
Saint-Joseph,90,RE,1603459371,69,-21.37,55.62,75.47,73.99,77.0,16.11
Comodoro Rivadavia,0,AR,1603459371,52,-45.87,-67.5,64.4,64.4,64.4,2.24
Kirkconnel,40,GB,1603459372,71,55.39,-4.0,52.5,52.0,53.6,12.75
Bubaque,97,GW,1603459372,73,11.28,-15.83,84.07,84.07,84.07,6.17
Pangody,96,RU,1603459372,98,65.85,74.49,19.92,19.92,19.92,9.93
Shellbrook,90,CA,1603459373,73,53.22,-106.4,21.2,21.2,21.2,10.29
General Roca,40,AR,1603459373,68,-39.03,-67.58,66.2,66.2,66.2,6.93
Maţāy,0,EG,1603459373,22,28.42,30.78,89.26,89.26,89.26,7.96
Lagos,75,NG,1603459223,70,6.58,3.75,87.8,87.8,87.8,8.05
Den Helder,40,NL,1603459275,72,52.96,4.76,61.25,60.01,62.6,19.46
Hasaki,75,JP,1603459374,100,35.73,140.83,62.35,60.8,63.0,4.7
Larvik,75,NO,1603459374,87,59.05,10.04,44.69,42.8,46.0,4.7
Clyde River,90,CA,1603459374,92,70.47,-68.59,17.6,17.6,17.6,4.7
Princes Town,20,TT,1603459263,88,10.27,-61.38,81.68,78.8,82.99,5.82
Voyvozh,25,RU,1603459375,95,62.89,54.96,20.05,20.05,20.05,6.02
Mahibadhoo,14,MV,1603459375,79,3.78,72.97,82.51,82.51,82.51,15.66
Roald,0,NO,1603459375,56,62.58,6.13,40.95,39.0,42.8,8.05
Dumbrăveni,0,RO,1603459375,52,46.23,24.57,64.4,64.4,64.4,1.12
Moengo,74,SR,1603459376,62,5.62,-54.4,87.53,87.53,87.53,4.29
Vigrestad,100,NO,1603459376,81,58.57,5.7,48.33,48.0,48.99,12.97
Rāy,75,IN,1603459149,69,23.68,85.05,78.8,78.8,78.8,6.2
Verkhoyansk,100,RU,1603459376,88,67.54,133.38,6.46,6.46,6.46,3.69
Iwanai,95,JP,1603459377,82,42.97,140.51,49.39,49.39,49.39,16.62
Deputatsky,92,RU,1603459377,87,69.3,139.9,-1.01,-1.01,-1.01,3.11
Kaeo,60,NZ,1603459377,95,-35.1,173.78,57.99,57.99,57.99,3.06
Esperance,90,AU,1603459378,87,-33.87,121.9,55.4,55.4,55.4,10.29
Benguela,40,AO,1603459378,74,-12.58,13.41,82.4,82.4,82.4,5.82
Plastun,3,RU,1603459378,86,44.76,136.29,33.4,33.4,33.4,13.51
Ciudad Río Bravo,75,MX,1603459379,88,25.98,-98.1,75.13,73.4,78.8,4.63
Borogontsy,86,RU,1603459379,94,62.67,131.17,10.65,10.65,10.65,5.39
Zeya,0,RU,1603459379,94,53.75,127.27,20.26,20.26,20.26,4.27
Pedernales,40,DO,1603459379,88,18.04,-71.74,78.8,78.8,78.8,5.26
Ondangwa,0,NA,1603459380,13,-17.92,15.95,102.2,102.2,102.2,3.36
Herat Province,0,AF,1603459380,25,34.5,62.0,64.4,64.4,64.4,17.22
Bathsheba,20,BB,1603459381,66,13.22,-59.52,87.8,87.8,87.8,23.04
Magalia,1,US,1603459381,23,39.81,-121.58,52.21,51.8,53.01,8.43
Mirzāpur,40,IN,1603459381,69,25.15,82.58,82.4,82.4,82.4,3.36
Port Hueneme,90,US,1603459381,82,34.15,-119.2,63.48,62.01,64.99,4.7
Qui Nhon,100,VN,1603459164,77,13.77,109.23,75.4,75.4,75.4,13.62
São Félix do Xingu,100,BR,1603459382,51,-6.64,-51.99,89.91,89.91,89.91,3.98
Machilipatnam,75,IN,1603459382,78,16.17,81.13,82.4,82.4,82.4,2.24
Antofagasta,90,CL,1603459207,93,-23.65,-70.4,55.4,55.4,55.4,5.82
Hambantota,20,LK,1603459382,66,6.12,81.12,86.0,86.0,86.0,10.29
Gladstone,100,AU,1603459383,78,-23.85,151.25,73.4,73.4,73.4,6.93
Homer,90,US,1603459383,93,59.64,-151.55,38.34,33.01,42.01,9.35
Remanso,0,BR,1603459383,54,-9.62,-42.08,83.1,83.1,83.1,16.46
Port Augusta,90,AU,1603459384,82,-32.5,137.77,56.77,55.99,59.0,28.86
Puertollano,40,ES,1603459384,62,38.69,-4.11,57.4,57.0,57.99,10.29
Yatou,0,CN,1603459384,59,37.15,122.38,48.11,48.11,48.11,13.04
Bani Walid,0,LY,1603459384,26,31.76,13.99,79.3,79.3,79.3,5.64
Gangelt,75,DE,1603459385,93,50.98,6.0,60.01,57.0,62.01,4.7
Hualmay,93,PE,1603459385,77,-11.1,-77.61,64.78,64.78,64.78,7.65
Ixtapa,75,MX,1603459385,94,20.7,-105.2,79.41,78.8,80.01,1.19
Nyrob,0,RU,1603459386,92,60.73,56.72,23.34,23.34,23.34,4.07
Bilibino,11,RU,1603459386,90,68.05,166.44,14.58,14.58,14.58,1.57
Ajdabiya,1,LY,1603459386,52,30.76,20.23,76.01,76.01,76.01,16.51
Tergnier,2,FR,1603459386,62,49.66,3.3,66.99,66.99,66.99,4.0
Ca Mau,100,VN,1603459214,92,9.18,105.15,75.96,75.96,75.96,1.74
Port Moresby,96,PG,1603459130,91,-9.44,147.18,77.14,77.14,77.14,8.84
Solnechnyy,100,RU,1603459388,97,50.72,136.63,31.32,31.32,31.32,21.74
Lukovetskiy,90,RU,1603459388,98,64.3,41.92,32.0,32.0,32.0,8.95
Kokopo,12,PG,1603459388,73,-4.35,152.26,78.76,78.76,78.76,3.91
Sept-Îles,75,CA,1603459389,80,50.2,-66.38,33.94,33.8,34.0,5.82
Matamoros,5,MX,1603459389,48,25.53,-103.25,66.2,66.2,66.2,2.19
Parola,85,IN,1603459389,53,20.88,75.12,86.45,86.45,86.45,1.32
Seoul,1,KR,1603459274,42,37.57,126.98,47.12,44.6,48.2,11.7
Lagoa,24,PT,1603459389,80,39.05,-27.98,65.07,65.07,65.07,14.56
Oxford,40,GB,1603459390,76,51.75,-1.26,56.53,55.99,57.2,16.11
Sovetskiy,0,RU,1603459390,93,61.36,63.58,25.2,25.2,25.2,4.36
Sur,0,OM,1603459390,60,22.57,59.53,81.73,81.73,81.73,14.54
Dalby,100,AU,1603459390,59,-27.18,151.27,72.0,72.0,72.0,5.01
Okha,100,RU,1603459391,97,53.57,142.95,46.33,46.33,46.33,21.3
Oranjestad,40,AW,1603459391,74,12.52,-70.03,86.0,86.0,86.0,23.04
Cēsis,79,LV,1603459391,92,57.31,25.27,52.5,52.0,53.01,5.01
Celestún,99,MX,1603459391,89,20.87,-90.4,77.74,77.74,77.74,4.52
Piney Green,40,US,1603459392,93,34.72,-77.32,67.62,66.2,70.0,3.36
Parbhani,0,IN,1603459392,59,19.27,76.78,79.36,79.36,79.36,4.45
Kondagaon,0,IN,1603459392,73,19.6,81.67,71.46,71.46,71.46,5.35
Kulhudhuffushi,50,MV,1603459269,80,6.62,73.07,81.68,81.68,81.68,16.02
Gevrai,4,IN,1603459286,58,19.27,75.75,79.83,79.83,79.83,5.44
Voznesen'ye,100,RU,1603459393,96,61.01,35.48,45.82,45.82,45.82,5.7
Dudinka,40,RU,1603459394,84,69.41,86.18,-2.2,-2.2,-2.2,11.18
Cayenne,38,GF,1603459394,66,4.93,-52.33,87.8,87.8,87.8,3.36
Moranbah,100,AU,1603459394,75,-22.0,148.05,72.16,72.16,72.16,4.65
Littleton,90,US,1603458695,92,39.61,-105.02,21.38,19.4,23.0,5.82
Dingle,100,PH,1603459394,90,11.0,122.67,77.09,77.09,77.09,5.79
Wad Rāwah,24,SD,1603459395,12,15.16,33.14,102.38,102.38,102.38,0.54
Saint-Germain-de-Grantham,90,CA,1603459395,87,45.83,-72.57,55.99,55.99,55.99,6.02
Waingapu,99,ID,1603459395,74,-9.66,120.26,82.04,82.04,82.04,3.76
Uribia,2,CO,1603459395,71,11.71,-72.27,85.26,85.26,85.26,16.13
Tindivanam,60,IN,1603459396,66,12.25,79.65,83.8,83.8,83.8,1.14
Whitefish,75,US,1603459386,92,48.41,-114.34,23.76,23.0,24.01,1.41
Bilma,1,NE,1603459396,10,18.69,12.92,96.28,96.28,96.28,7.2
Wanning,100,CN,1603459396,69,18.8,110.4,71.94,71.94,71.94,14.47
Turan,40,VN,1603459304,78,16.07,108.22,73.4,73.4,73.4,2.24
Marsh Harbour,0,BS,1603459397,78,26.54,-77.06,79.2,79.2,79.2,16.58
Nizwá,0,OM,1603459397,11,22.93,57.53,87.64,87.64,87.64,6.91
Harriston,87,CA,1603459381,88,43.9,-80.88,62.01,62.01,62.01,14.0
Turbat,0,PK,1603459360,13,26.0,63.04,86.32,86.32,86.32,19.08
Sabha,0,LY,1603459398,15,27.04,14.43,84.34,84.34,84.34,9.66
Severo-Kuril'sk,100,RU,1603459398,79,50.68,156.12,44.08,44.08,44.08,17.34
Mason City,90,US,1603459398,89,43.15,-93.2,33.93,33.8,34.0,20.8
Touros,75,BR,1603459399,83,-5.2,-35.46,82.4,82.4,82.4,13.87
Lar,3,IN,1603459399,55,26.2,83.97,82.22,82.22,82.22,5.14
Dukat,2,RU,1603459399,86,62.55,155.55,19.02,19.02,19.02,6.51
Lompoc,90,US,1603459399,82,34.64,-120.46,59.76,59.0,60.8,2.68
Phonhong,20,LA,1603459399,94,18.5,102.42,69.8,69.8,69.8,2.04
Lahaina,1,US,1603459335,68,20.88,-156.68,70.09,66.2,72.0,5.66
‘Ewa Beach,75,US,1603459400,83,21.32,-158.01,77.4,71.6,80.6,12.75
Sarankhola,100,BD,1603459401,94,22.31,89.79,75.92,75.92,75.92,7.92
Broken Hill,40,AU,1603459401,88,-31.95,141.43,64.4,64.4,64.4,11.41
Xaçmaz,0,AZ,1603459401,59,41.46,48.81,63.27,63.27,63.27,7.54
Manokwari,39,ID,1603459402,76,-0.87,134.08,82.2,82.2,82.2,0.96
Upernavik,100,GL,1603459402,93,72.79,-56.15,22.03,22.03,22.03,7.29
Izumo,75,JP,1603459402,87,35.37,132.77,53.6,53.6,53.6,6.93
Maningrida,60,AU,1603459402,68,-12.07,134.27,82.72,82.72,82.72,2.35
Egvekinot,2,RU,1603459403,95,66.32,-179.17,25.48,25.48,25.48,9.86
Tsimmerbude,40,RU,1603459403,71,54.67,20.13,55.71,55.4,55.99,13.42
Ancud,75,CL,1603459404,81,-41.87,-73.82,47.21,43.0,52.0,11.41
San Patricio,20,US,1603459404,100,28.02,-97.52,74.95,71.6,78.01,3.69
Eydhafushi,55,MV,1603459404,78,5.1,73.07,82.74,82.74,82.74,15.5
Stephenville,90,US,1603459134,88,32.22,-98.2,69.33,69.01,69.8,15.03
Lerwick,75,GB,1603459405,87,60.15,-1.15,48.2,48.2,48.2,12.75
Oskaloosa,90,US,1603459128,100,41.3,-92.64,38.07,37.4,39.2,20.8
San Juan,0,AR,1603459405,42,-31.54,-68.54,74.8,74.8,74.8,5.79
Vrangel',0,RU,1603459406,67,42.73,133.08,40.03,40.03,40.03,22.17
Progreso,90,MX,1603459205,94,21.28,-89.67,78.04,77.0,79.0,4.07
Hay River,90,CA,1603459296,100,60.82,-115.8,21.2,21.2,21.2,10.29
Basco,100,PH,1603459407,84,20.45,121.97,78.96,78.96,78.96,37.16
Makakilo City,75,US,1603459407,83,21.35,-158.09,77.13,71.6,80.6,12.75
Abu Samrah,0,SY,1603459407,11,35.3,37.18,91.0,91.0,91.0,7.49
Petropavl,89,KZ,1603459408,91,54.88,69.16,26.87,26.87,26.87,9.69
Tshela,100,CD,1603459408,64,-4.98,12.93,84.4,84.4,84.4,3.06
Baie-Comeau,90,CA,1603459167,86,49.22,-68.15,39.2,39.2,39.2,9.17
Nanlong,100,CN,1603459409,58,31.35,106.06,67.05,67.05,67.05,1.7
Fare,100,PF,1603459409,75,-16.7,-151.02,78.96,78.96,78.96,9.71
Omboué,100,GA,1603459409,76,-1.57,9.26,81.79,81.79,81.79,11.83
Yarensk,100,RU,1603459409,92,62.17,49.09,26.92,26.92,26.92,10.69
Wanparti,68,IN,1603459149,66,16.37,78.07,80.22,80.22,80.22,1.32
Lamu,40,KE,1603459410,62,-2.27,40.9,87.8,87.8,87.8,11.41
Motril,0,ES,1603459411,49,36.75,-3.52,68.95,66.99,71.01,5.01
Recco,100,IT,1603459411,94,44.36,9.14,64.62,62.01,66.0,5.99
Buraidah,0,SA,1603459411,17,26.33,43.98,89.6,89.6,89.6,11.41
São João da Barra,40,BR,1603459411,47,-21.64,-41.05,78.8,78.8,78.8,4.7
Ankazoabo,22,MG,1603459412,26,-22.28,44.52,92.75,92.75,92.75,10.07
Salalah,0,OM,1603459412,27,17.02,54.09,87.8,87.8,87.8,6.93
Ocós,20,GT,1603459412,100,14.51,-92.19,73.4,73.4,73.4,5.88
Kushmurun,0,KZ,1603459412,80,52.45,64.63,30.56,30.56,30.56,6.89
San Antonio,90,US,1603459368,94,29.42,-98.49,74.48,73.4,75.2,4.7
Mawlaik,100,MM,1603459413,94,23.63,94.42,75.16,75.16,75.16,1.32
‘Āhuimanu,90,US,1603459413,83,21.44,-157.84,77.07,73.99,80.6,5.17
Ponoka,90,CA,1603459413,78,52.68,-113.58,14.0,14.0,14.0,6.93
Kayes,0,ML,1603459414,36,14.0,-11.0,95.0,95.0,95.0,2.24
Haapiti,75,PF,1603459414,88,-17.57,-149.87,73.18,73.0,73.4,3.36
Tucuruí,6,BR,1603459414,50,-3.77,-49.67,89.73,89.73,89.73,5.79
Popondetta,100,PG,1603459415,91,-8.75,148.25,74.28,74.28,74.28,2.82
Shahrud,1,IR,1603459415,47,36.42,54.98,58.32,58.32,58.32,13.73
Weligama,31,LK,1603459415,83,5.97,80.42,80.31,80.31,80.31,11.39
Sambava,12,MG,1603459415,67,-14.27,50.17,78.91,78.91,78.91,15.14
Seminole,1,US,1603459416,88,28.71,-81.21,75.63,73.99,78.01,4.7
Fereydūnkenār,20,IR,1603459416,68,36.69,52.52,71.6,71.6,71.6,6.93
Puerto Quijarro,0,BO,1603459416,39,-17.78,-57.77,95.27,95.27,95.27,3.47
Moses Lake,1,US,1603459127,68,47.13,-119.28,29.07,26.6,30.99,4.7
Pontal do Paraná,75,BR,1603459417,77,-25.65,-48.51,66.04,66.0,66.2,12.75
San Andrés,40,CO,1603459417,79,12.58,-81.7,86.0,86.0,86.0,3.51
Los Llanos de Aridane,20,ES,1603459417,50,28.66,-17.92,72.14,69.01,77.0,9.17
Great Falls,90,US,1603459417,84,47.5,-111.3,4.64,1.4,6.8,0.89
Florianópolis,40,BR,1603459407,73,-27.61,-48.5,73.74,72.0,75.2,11.41
Gazimurskiy Zavod,0,RU,1603459418,91,51.55,118.33,28.56,28.56,28.56,1.92
Kenai,1,US,1603459418,59,60.55,-151.26,33.66,30.2,36.0,5.82
Stolin,100,BY,1603459419,75,51.89,26.85,56.01,56.01,56.01,7.63
Muros,100,ES,1603459419,69,42.78,-9.06,63.55,63.0,64.0,10.0
Meulaboh,100,ID,1603459419,82,4.14,96.13,80.55,80.55,80.55,4.07
San Cristobal,75,VE,1603459420,51,7.77,-72.22,86.0,86.0,86.0,16.11
Prince Rupert,1,CA,1603459174,81,54.32,-130.32,32.0,32.0,32.0,4.7
Hopewell,36,US,1603459420,95,37.3,-77.29,60.01,60.01,60.01,0.56
Olinda,75,BR,1603459421,70,-8.01,-34.86,84.2,84.2,84.2,14.99
Ucluelet,90,CA,1603459302,100,48.93,-125.55,42.26,41.0,43.0,10.29
Clyde,0,US,1603459421,78,41.3,-82.98,67.98,66.99,69.01,15.93
Port-de-Bouc,60,FR,1603459421,82,43.4,4.98,66.29,64.4,68.0,17.22
Glubokiy,13,RU,1603459422,35,48.52,40.33,70.74,70.74,70.74,10.85
Zhezkazgan,0,KZ,1603459422,72,47.8,67.71,34.72,34.72,34.72,9.01
Zhigansk,100,RU,1603459422,97,66.77,123.37,25.07,25.07,25.07,35.41
Singaraja,12,ID,1603459335,76,-8.11,115.09,81.0,81.0,81.0,3.83
Mehamn,75,NO,1603459423,93,71.04,27.85,37.4,37.4,37.4,23.04
Walvis Bay,0,NA,1603459423,64,-22.96,14.51,67.51,64.99,69.8,11.41
Leh,91,IN,1603459423,49,34.17,77.58,40.12,40.12,40.12,4.29
Magadan,100,RU,1603459423,87,59.57,150.8,35.04,35.04,35.04,14.76
Luanda,40,AO,1603459250,69,-8.84,13.23,82.4,82.4,82.4,17.22
Mogadishu,75,SO,1603459424,66,2.04,45.34,86.0,86.0,86.0,18.34
Diok’nisi,0,GE,1603459424,31,41.63,42.39,73.06,69.8,75.2,2.24
Antalaha,77,MG,1603459425,64,-14.9,50.28,78.67,78.67,78.67,13.27
Teguise,40,ES,1603459425,68,29.06,-13.56,71.6,71.6,71.6,19.46
Port Lincoln,6,AU,1603459425,76,-34.73,135.87,54.61,54.61,54.61,19.73
Kilindoni,56,TZ,1603459426,71,-7.91,39.67,81.9,81.9,81.9,10.49
Mattawa,1,US,1603459426,92,46.74,-119.9,25.41,24.8,26.6,1.45
Maketu,60,NZ,1603459426,100,-37.77,176.45,59.25,57.99,60.01,1.01
Cuenca,20,EC,1603459423,82,-2.88,-78.98,57.2,57.2,57.2,3.36
Kamaishi,0,JP,1603459426,77,39.27,141.88,58.12,58.12,58.12,7.96
Morehead,40,US,1603459427,93,37.27,-87.18,67.87,66.2,71.6,8.05
Montrose,1,US,1603459427,55,38.42,-108.27,34.3,33.01,36.0,3.36
Alginet,0,ES,1603459427,44,39.27,-0.47,74.35,73.0,75.99,8.99
Thessalon,90,CA,1603459428,100,46.25,-83.57,39.2,39.2,39.2,4.7
Oytal,100,KZ,1603459428,67,42.91,73.27,42.48,42.48,42.48,9.35
Sabana Grande de Boyá,40,DO,1603459428,94,18.95,-69.79,82.38,80.6,84.2,7.72
Angoche,0,MZ,1603459428,63,-16.23,39.91,81.23,81.23,81.23,14.38
Auki,100,SB,1603459429,83,-8.77,160.7,78.1,78.1,78.1,5.14
Erenhot,0,CN,1603459429,52,43.65,111.98,43.0,43.0,43.0,5.99
