City,Cloudiness,Country,Date,Humidity,Lat,Lng,Temp,Min Temp,Max Temp,Wind Speed
Smirnykh,67,RU,1603261147,73,49.75,142.83,46.98,46.98,46.98,3.29
Hilo,1,US,1603261147,73,19.73,-155.09,71.6,69.01,75.2,3.36
New Norfolk,100,AU,1603261127,53,-42.78,147.06,59.2,57.99,61.0,1.34
Chui,100,UY,1603261061,73,-33.7,-53.46,57.47,57.47,57.47,12.19
Malbork,100,PL,1603261148,90,54.04,19.03,47.34,46.99,48.0,7.0
Rikitea,28,PF,1603261148,77,-23.12,-134.97,73.98,73.98,73.98,9.15
Esperance,90,AU,1603261149,93,-33.87,121.9,62.6,62.6,62.6,14.99
Waipawa,38,NZ,1603261150,67,-41.41,175.52,57.61,55.99,59.0,21.92
Atuona,67,PF,1603260910,75,-9.8,-139.03,77.81,77.81,77.81,18.25
Polunochnoye,92,RU,1603261150,87,60.87,60.42,33.98,33.98,33.98,5.99
Wattegama,40,LK,1603261150,59,6.8,81.48,91.4,91.4,91.4,19.46
Vaini,90,TO,1603261150,78,-21.2,-175.2,71.6,71.6,71.6,5.82
Kawalu,97,ID,1603261151,67,-7.38,108.21,83.77,83.77,83.77,5.84
Carnarvon,75,AU,1603261109,60,-24.87,113.63,73.4,73.4,73.4,17.22
Upernavik,100,GL,1603261151,99,72.79,-56.15,31.96,31.96,31.96,7.7
Busselton,39,AU,1603261114,77,-33.65,115.33,63.32,62.01,64.0,5.01
Bluff,51,NZ,1603260959,63,-46.6,168.33,55.99,55.99,55.99,10.0
Pevek,86,RU,1603260980,95,69.7,170.31,30.63,30.63,30.63,13.04
Jamestown,90,US,1603261152,100,42.1,-79.24,52.56,51.01,55.0,5.82
St. Marys,90,US,1603260883,83,30.73,-81.55,75.04,73.0,77.0,9.17
Butaritari,61,KI,1603261152,73,3.07,172.79,82.26,82.26,82.26,7.23
Henties Bay,3,NA,1603261153,86,-22.12,14.28,57.99,57.99,57.99,3.11
Lethem,68,GY,1603261153,70,3.38,-59.8,79.9,79.9,79.9,11.25
Port Alfred,0,ZA,1603260951,54,-33.59,26.89,62.4,62.4,62.4,3.56
Tiksi,91,RU,1603261153,92,71.69,128.87,8.92,8.92,8.92,8.12
Ushuaia,40,AR,1603260953,86,-54.8,-68.3,39.2,39.2,39.2,8.34
Mbandaka,90,CD,1603261154,93,0.05,18.26,72.34,72.34,72.34,1.66
Marapanim,25,BR,1603261154,92,-0.72,-47.7,74.28,74.28,74.28,4.14
Tongliao,0,CN,1603261154,40,43.61,122.27,52.54,52.54,52.54,18.12
Castro,23,BR,1603260981,98,-24.79,-50.01,59.52,59.52,59.52,5.5
Hermanus,0,ZA,1603261155,81,-34.42,19.23,57.0,57.0,57.0,4.52
Muros,43,ES,1603261155,92,42.78,-9.06,56.12,55.0,57.0,1.01
Khatanga,81,RU,1603261155,95,71.97,102.5,7.25,7.25,7.25,7.94
Bambous Virieux,75,MU,1603261155,65,-20.34,57.76,80.31,80.01,80.6,14.99
Plettenberg Bay,0,ZA,1603261155,64,-34.05,23.37,60.26,60.26,60.26,3.56
Prince Rupert,90,CA,1603260939,100,54.32,-130.32,39.2,39.2,39.2,3.36
Mataura,37,NZ,1603261156,63,-46.19,168.86,55.99,55.99,55.99,10.0
Lobito,82,AO,1603261156,82,-12.35,13.55,73.89,73.89,73.89,4.09
Coari,92,BR,1603261156,80,-4.08,-63.14,76.5,76.5,76.5,0.96
Airai,37,TL,1603261157,43,-8.93,125.41,79.02,79.02,79.02,3.85
Mar del Plata,0,AR,1603261033,93,-38.0,-57.56,44.4,37.4,52.0,6.4
Ilulissat,100,GL,1603260971,80,69.22,-51.1,33.8,33.8,33.8,9.17
Darhan,38,MN,1603261157,62,49.49,105.92,36.73,36.73,36.73,2.82
Cidreira,56,BR,1603261126,95,-30.18,-50.21,67.26,67.26,67.26,13.78
Necochea,0,AR,1603261158,89,-38.55,-58.74,37.0,37.0,37.0,3.0
Lata,28,PT,1603261158,98,40.16,-8.33,57.67,57.0,57.99,6.2
Anadyr,69,RU,1603261158,83,64.75,177.48,41.0,41.0,41.0,17.9
Kupang,20,ID,1603261158,41,-10.17,123.58,95.0,95.0,95.0,17.22
Ndendé,100,GA,1603261159,94,-2.4,11.36,74.14,74.14,74.14,2.06
Vodnyy,76,RU,1603261159,97,63.5,53.41,28.11,28.11,28.11,4.99
Sittwe,69,MM,1603261062,81,20.15,92.9,82.45,82.45,82.45,13.49
Puerto Ayora,94,EC,1603261159,89,-0.74,-90.35,69.01,69.01,69.01,8.01
Maţāy,0,EG,1603261159,56,28.42,30.78,76.26,76.26,76.26,7.14
Dikson,95,RU,1603261160,97,73.51,80.55,24.91,24.91,24.91,5.41
Nanortalik,100,GL,1603261160,89,60.14,-45.24,34.27,34.27,34.27,13.82
St. George's,20,GD,1603260967,83,12.06,-61.75,82.4,82.4,82.4,5.82
Labuhan,30,ID,1603261160,58,-6.88,112.21,88.12,88.12,88.12,8.72
Tétouan,40,MA,1603261161,68,35.57,-5.37,69.8,69.8,69.8,12.75
Cabo San Lucas,0,MX,1603260928,68,22.89,-109.91,79.0,79.0,79.0,9.89
Yangshan,93,CN,1603261161,53,28.76,115.03,65.8,65.8,65.8,2.44
Punta Arenas,75,CL,1603261132,74,-53.15,-70.92,37.2,37.0,37.4,8.05
Faanui,4,PF,1603260974,80,-16.48,-151.75,78.98,78.98,78.98,14.34
Kununurra,27,AU,1603261162,29,-15.77,128.73,102.2,102.2,102.2,10.29
Mana,91,GF,1603261162,83,5.66,-53.78,78.75,78.75,78.75,10.98
Thompson,90,CA,1603261022,92,55.74,-97.86,23.0,23.0,23.0,2.3
Qaanaaq,65,GL,1603261006,82,77.48,-69.36,19.85,19.85,19.85,5.79
Rabo de Peixe,20,PT,1603261163,67,37.8,-25.58,60.8,60.8,60.8,11.41
São José do Campestre,69,BR,1603261163,87,-6.32,-35.71,71.11,71.11,71.11,7.25
Hithadhoo,24,MV,1603261163,78,-0.6,73.08,82.56,82.56,82.56,12.68
Lorengau,94,PG,1603261138,64,-2.02,147.27,84.99,84.99,84.99,4.79
Mabay,75,PH,1603261164,55,6.06,124.47,89.6,89.6,89.6,16.11
Vestmannaeyjar,99,IS,1603261164,71,63.44,-20.27,38.35,38.35,38.35,4.12
Cape Town,0,ZA,1603261010,67,-33.93,18.42,58.32,53.01,63.0,13.87
Samaná,82,DO,1603261164,82,19.21,-69.34,75.45,75.45,75.45,1.86
Fengrun,0,CN,1603261164,27,39.83,118.12,60.58,60.58,60.58,13.62
Avarua,89,CK,1603261143,88,-21.21,-159.78,73.4,73.4,73.4,6.93
Itarema,16,BR,1603261165,78,-2.92,-39.92,78.01,78.01,78.01,14.27
Ribeira Grande,52,PT,1603261165,68,38.52,-28.7,63.73,63.73,63.73,23.82
General Roca,3,AR,1603261166,44,-39.03,-67.58,60.8,60.8,60.8,16.11
Almuñécar,41,ES,1603260866,76,36.73,-3.69,63.75,60.01,66.0,5.01
Sarrebourg,100,FR,1603261166,93,48.73,7.05,52.36,50.0,55.4,3.36
Chokurdakh,55,RU,1603261166,94,70.63,147.92,8.28,8.28,8.28,6.46
Te Anau,37,NZ,1603261167,64,-45.42,167.72,50.25,50.25,50.25,4.74
Kavieng,98,PG,1603261167,90,-2.57,150.8,76.98,76.98,76.98,3.0
Aswān,0,EG,1603261167,16,24.09,32.91,86.5,86.5,86.5,9.17
Luanda,90,AO,1603261137,83,-8.84,13.23,75.2,75.2,75.2,5.82
Salalah,0,OM,1603260942,62,17.02,54.09,87.8,87.8,87.8,5.82
Hobart,75,AU,1603260983,48,-42.88,147.33,60.31,59.0,61.0,10.29
Samarai,73,PG,1603261168,80,-10.62,150.67,81.05,81.05,81.05,9.82
Grand Gaube,0,MU,1603261168,60,-20.01,57.66,80.01,80.01,80.01,10.0
Oddur,58,SO,1603261169,73,4.12,43.89,77.14,77.14,77.14,8.81
Fortuna,1,US,1603261024,93,40.6,-124.16,51.06,50.0,54.0,5.82
Ñuñoa,63,PE,1603261169,67,-14.48,-70.64,41.86,41.86,41.86,3.09
Uglovskoye,82,RU,1603261169,35,51.36,80.19,55.24,55.24,55.24,16.04
Victor Harbor,26,AU,1603261169,74,-35.57,138.62,60.01,60.01,60.01,3.0
Hambantota,40,LK,1603261166,59,6.12,81.12,91.4,91.4,91.4,19.46
Lugovoy,0,KZ,1603261170,19,42.95,72.76,72.21,72.21,72.21,8.61
Vilyuysk,97,RU,1603261170,95,63.76,121.62,24.46,24.46,24.46,4.14
Gloversville,90,US,1603261170,100,43.05,-74.34,49.24,48.2,50.0,4.7
Gamboula,95,CF,1603261171,96,4.12,15.14,69.15,69.15,69.15,2.73
Dingle,40,PH,1603261171,81,11.0,122.67,83.82,83.82,83.82,16.44
Buraidah,0,SA,1603260987,29,26.33,43.98,75.2,75.2,75.2,2.24
Mizhou,1,CN,1603261171,30,35.99,119.4,68.41,68.41,68.41,15.64
Praia,92,CV,1603261172,83,14.92,-23.51,78.8,78.8,78.8,12.75
Aklavik,75,CA,1603261149,85,68.22,-135.01,23.0,23.0,23.0,13.87
Kapaa,75,US,1603261172,83,22.08,-159.32,74.52,73.0,77.0,4.7
Mount Gambier,90,AU,1603261142,55,-37.83,140.77,64.4,64.4,64.4,12.75
Portland,75,US,1603260911,76,45.52,-122.68,54.1,52.0,55.99,9.17
Broken Hill,0,AU,1603261173,16,-31.95,141.43,78.8,78.8,78.8,9.17
Kathmandu,20,NP,1603261061,50,27.72,85.32,77.0,77.0,77.0,4.7
Bredasdorp,0,ZA,1603260982,71,-34.53,20.04,57.2,57.2,57.2,1.12
Port Elizabeth,2,ZA,1603261173,63,-33.92,25.57,62.6,62.6,62.6,6.93
Chilca,75,PE,1603261174,87,-12.52,-76.74,61.77,60.8,62.01,6.93
Nicolás Bravo,43,MX,1603261174,98,18.45,-88.92,71.64,71.64,71.64,2.91
Ziro,75,IN,1603261174,66,27.63,93.83,89.6,89.6,89.6,2.24
Jumla,0,NP,1603260960,21,29.27,82.18,69.31,69.31,69.31,4.59
Ossora,100,RU,1603261175,94,59.24,163.07,35.71,35.71,35.71,14.38
Comodoro Rivadavia,67,AR,1603261175,80,-45.87,-67.5,41.0,41.0,41.0,1.12
Salto,100,UY,1603261175,79,-31.38,-57.97,57.0,57.0,57.0,8.99
Dalby,97,AU,1603261176,91,-27.18,151.27,66.0,66.0,66.0,1.01
Laguna,1,US,1603261045,59,38.42,-121.42,63.32,62.01,64.99,2.42
Isangel,75,VU,1603261059,78,-19.55,169.27,78.8,78.8,78.8,9.17
Hay River,75,CA,1603261176,68,60.82,-115.8,24.8,24.8,24.8,10.29
Belomorsk,49,RU,1603261177,97,64.52,34.77,29.03,29.03,29.03,6.15
Umluj,0,SA,1603261177,25,25.02,37.27,91.87,91.87,91.87,5.68
Port Augusta,0,AU,1603261177,44,-32.5,137.77,82.58,75.2,84.99,13.87
Bengkulu,73,ID,1603261177,65,-3.8,102.27,85.42,85.42,85.42,9.06
George Town,40,MY,1603260905,62,5.41,100.34,87.4,87.01,87.8,6.93
Nālūt,0,LY,1603261178,56,30.33,10.85,58.01,58.01,58.01,15.66
Faya,0,SA,1603261178,18,18.39,42.45,63.5,62.6,64.4,9.17
Cherskiy,90,RU,1603261029,97,68.75,161.3,20.05,20.05,20.05,2.44
Luton,90,GB,1603261142,100,51.88,-0.42,56.03,55.4,57.0,10.29
Jānsath,0,IN,1603261179,17,29.33,77.85,88.56,88.56,88.56,2.06
Trairi,48,BR,1603260979,73,-3.28,-39.27,78.71,78.71,78.71,11.88
Duns,30,GB,1603261179,95,55.78,-2.35,48.18,44.01,53.01,6.64
Maridi,97,SS,1603261179,94,4.92,29.47,69.01,69.01,69.01,4.9
Lat Yao,93,TH,1603261179,82,15.75,99.79,78.12,78.12,78.12,7.63
Naze,75,JP,1603261171,74,28.37,129.48,80.6,80.6,80.6,13.87
Praia da Vitória,40,PT,1603261094,72,38.73,-27.07,58.57,57.99,59.0,22.86
Vila Velha,40,BR,1603261134,94,-20.33,-40.29,68.0,68.0,68.0,5.82
Longyearbyen,75,SJ,1603261147,68,78.22,15.64,26.6,26.6,26.6,5.82
Kenai,1,US,1603261180,86,60.55,-151.26,29.82,24.8,37.0,4.81
Caluquembe,65,AO,1603261181,58,-13.78,14.68,64.15,64.15,64.15,6.38
Barra de Tecoanapa,92,MX,1603261181,87,16.52,-98.75,79.68,79.68,79.68,4.99
Albany,100,US,1603261181,85,42.6,-73.97,49.48,48.99,50.0,3.18
Klaksvík,14,FO,1603261181,69,62.23,-6.59,39.2,39.2,39.2,8.05
Port Blair,47,IN,1603261032,74,11.67,92.75,84.85,84.85,84.85,15.23
Ippy,98,CF,1603261182,94,6.27,21.22,72.82,72.82,72.82,2.93
Macusani,84,PE,1603261182,82,-14.08,-70.43,36.23,36.23,36.23,2.44
Minsk,100,BY,1603261182,93,53.9,27.57,39.2,39.2,39.2,11.18
San Cristobal,99,VE,1603261158,90,7.77,-72.22,65.12,65.12,65.12,1.05
Raudeberg,100,NO,1603261183,95,61.99,5.14,44.01,44.01,44.01,14.0
Orotukan,0,RU,1603261183,87,62.27,151.7,14.09,14.09,14.09,5.53
Karīmganj,50,IN,1603260913,66,24.87,92.35,87.19,87.19,87.19,2.42
Gua Musang,42,MY,1603261184,46,4.88,101.96,94.39,94.39,94.39,2.44
Katobu,55,ID,1603261184,49,-4.94,122.53,90.19,90.19,90.19,3.09
Três Corações,55,BR,1603261184,92,-21.7,-45.25,62.35,62.35,62.35,2.46
Tsuruga,29,JP,1603261184,77,35.65,136.06,60.48,53.01,70.0,8.01
Saint-Philippe,17,RE,1603261185,51,-21.36,55.77,78.42,73.0,82.4,23.04
Huarmey,41,PE,1603261185,83,-10.07,-78.15,62.64,62.64,62.64,6.24
Gravdal,20,NO,1603261185,59,68.12,13.5,37.4,37.4,37.4,10.29
Yellowknife,90,CA,1603261186,73,62.46,-114.35,23.0,23.0,23.0,9.17
Pisco,46,PE,1603261186,82,-13.7,-76.22,62.35,62.01,62.6,9.17
Bata,100,GQ,1603261186,90,1.86,9.77,75.51,75.51,75.51,6.11
Barrow,90,US,1603260917,86,71.29,-156.79,30.2,30.2,30.2,16.11
Norman Wells,75,CA,1603260979,85,65.28,-126.83,23.0,23.0,23.0,12.75
Chegutu,0,ZW,1603261187,35,-18.13,30.14,79.86,79.86,79.86,12.1
Mykolayivka,14,UA,1603261187,61,47.54,30.76,48.2,48.2,48.2,10.22
Doha,0,QA,1603261187,51,25.29,51.53,86.74,84.2,90.0,9.17
Dukat,2,RU,1603261187,92,62.55,155.55,7.29,7.29,7.29,1.39
Peniche,1,PT,1603261188,86,39.36,-9.38,59.11,57.0,61.0,11.99
Shahr-e Bābak,0,IR,1603261188,17,30.12,55.12,65.05,65.05,65.05,1.57
Tasiilaq,100,GL,1603261188,98,65.61,-37.64,32.0,32.0,32.0,11.41
Lokosovo,100,RU,1603261188,94,61.13,74.82,34.32,34.32,34.32,10.42
Belmonte,75,BR,1603261189,88,-15.86,-38.88,73.4,73.4,73.4,3.36
Sioux Lookout,90,CA,1603260958,92,50.1,-91.92,28.4,28.4,28.4,3.36
Pilar,75,BR,1603261189,94,-9.6,-35.96,71.6,71.6,71.6,3.36
Churapcha,100,RU,1603261189,97,62.0,132.43,21.02,21.02,21.02,6.67
Bose,100,IT,1603261190,93,45.46,8.01,50.72,48.99,52.0,1.25
Tessalit,0,ML,1603261190,18,20.2,1.01,76.86,76.86,76.86,8.21
Beringovskiy,35,RU,1603261190,85,63.05,179.32,39.56,39.56,39.56,11.43
Burleson,1,US,1603261191,73,32.54,-97.32,71.73,70.0,73.0,8.05
Oyama,40,JP,1603261191,55,36.3,139.8,69.13,64.4,73.0,11.41
Huai'an,67,CN,1603261191,39,33.59,119.02,72.79,72.79,72.79,10.07
Khor,100,RU,1603261192,61,47.89,134.95,55.54,55.54,55.54,8.37
Wenatchee,1,US,1603261097,61,47.42,-120.31,43.86,42.01,45.0,3.36
Kaeo,78,NZ,1603261192,72,-35.1,173.78,64.99,64.99,64.99,4.0
Vao,80,NC,1603261128,83,-22.67,167.48,73.22,73.22,73.22,13.87
Mergen,46,CN,1603261192,54,49.18,125.22,49.69,49.69,49.69,20.0
Bathsheba,40,BB,1603261193,78,13.22,-59.52,80.6,80.6,80.6,5.82
Omsukchan,32,RU,1603261193,91,62.53,155.8,10.47,10.47,10.47,1.68
Vardø,90,NO,1603261117,86,70.37,31.11,30.2,30.2,30.2,10.29
Saskylakh,91,RU,1603261193,96,71.92,114.08,17.55,17.55,17.55,6.55
Ambon City,40,ID,1603261010,70,-3.7,128.18,86.0,86.0,86.0,8.05
Lagoa,79,PT,1603260992,71,39.05,-27.98,63.16,63.16,63.16,25.1
Predivinsk,100,RU,1603261194,84,57.07,93.44,39.31,39.31,39.31,6.98
San Sebastián Etla,46,MX,1603261194,86,17.06,-96.79,57.13,57.13,57.13,4.74
Khilok,74,RU,1603261195,79,51.37,110.47,31.77,31.77,31.77,11.43
Nikolskoye,90,RU,1603261120,100,59.7,30.79,30.06,28.99,30.99,6.71
Starachowice,100,PL,1603261195,79,51.04,21.07,45.66,45.0,46.0,9.91
Mauá,72,BR,1603261195,88,-23.67,-46.46,64.99,62.6,66.2,0.85
Sabha,33,LY,1603261196,72,27.04,14.43,65.03,65.03,65.03,13.22
Nerchinskiy Zavod,98,RU,1603261196,73,51.31,119.61,35.35,35.35,35.35,17.52
Sayyan,0,YE,1603261196,31,15.17,44.32,60.26,60.26,60.26,8.34
Valparaíso,0,CL,1603261196,93,-33.04,-71.63,50.0,50.0,50.0,4.7
Sørland,75,NO,1603261196,60,67.67,12.69,39.87,39.2,41.0,23.04
Mahébourg,75,MU,1603261119,65,-20.41,57.7,80.6,80.6,80.6,14.99
Lebu,0,CL,1603261117,85,-37.62,-73.65,47.64,47.64,47.64,16.33
Padang,92,ID,1603261197,61,-0.95,100.35,86.63,86.63,86.63,7.67
Tuatapere,57,NZ,1603261184,63,-46.13,167.68,55.99,55.99,55.99,10.0
Poum,17,NC,1603261197,71,-20.23,164.02,76.21,76.21,76.21,5.28
Oktyabr'skoye,90,RU,1603261198,81,43.06,44.74,50.0,50.0,50.0,2.82
Bethel,90,US,1603261047,100,41.37,-73.41,59.61,59.0,60.8,1.63
Yaroslavskiy,100,RU,1603261198,65,44.17,132.21,60.75,60.75,60.75,20.6
East London,0,ZA,1603261198,42,-33.02,27.91,66.2,66.2,66.2,6.93
Ampanihy,0,MG,1603261199,28,-24.7,44.75,85.12,85.12,85.12,4.61
Methóni,20,GR,1603261199,67,36.82,21.7,63.48,60.8,66.0,6.49
Lukulu,0,ZM,1603261199,19,-14.37,23.24,77.43,77.43,77.43,7.11
Hamilton,1,US,1603261187,93,39.18,-84.53,58.98,57.0,62.01,5.82
Olenegorsk,100,RU,1603261200,98,68.15,33.3,28.65,28.65,28.65,2.55
Sortova,100,PA,1603261200,86,8.55,-82.65,71.19,64.0,78.01,1.01
Tezu,8,IN,1603261200,47,27.92,96.17,88.18,88.18,88.18,2.8
Nouadhibou,0,MR,1603261201,64,20.93,-17.03,75.2,75.2,75.2,17.22
Heusden,100,BE,1603261201,93,51.04,5.28,54.12,53.6,55.0,5.82
Saint-Joseph,3,RE,1603261201,51,-21.37,55.62,78.49,73.0,82.4,23.04
Xining,0,CN,1603261201,33,36.62,101.77,54.14,54.14,54.14,3.36
Kamaishi,75,JP,1603261202,48,39.27,141.88,62.6,62.6,62.6,17.22
Aitape,86,PG,1603261202,71,-3.14,142.35,83.43,83.43,83.43,4.07
Nishihara,75,JP,1603261068,70,26.18,127.76,82.8,82.0,84.2,17.22
Egvekinot,82,RU,1603261203,99,66.32,-179.17,32.61,32.61,32.61,6.17
Honningsvåg,75,NO,1603261066,100,70.98,25.97,33.8,33.8,33.8,2.24
Maniitsoq,100,GL,1603261203,90,65.42,-52.9,33.64,33.64,33.64,17.16
Alofi,100,NU,1603261001,94,-19.06,-169.92,71.6,71.6,71.6,17.22
Saint Paul Harbor,1,US,1603260980,60,57.79,-152.41,39.2,39.2,39.2,6.93
Aksarka,97,RU,1603261204,98,66.56,67.8,22.03,22.03,22.03,7.09
Ust-Nera,44,RU,1603261205,86,64.57,143.2,7.48,7.48,7.48,4.43
Baykit,100,RU,1603261205,94,61.67,96.37,30.18,30.18,30.18,3.94
Inta,100,RU,1603261205,97,66.03,60.17,23.31,23.31,23.31,2.53
Quatre Cocos,75,MU,1603260979,65,-20.21,57.76,80.29,80.01,80.6,14.99
Chumikan,100,RU,1603261205,71,54.72,135.31,39.58,39.58,39.58,7.96
Riviere-au-Renard,5,CA,1603261206,69,49.0,-64.4,39.2,39.2,39.2,5.82
Souillac,75,MU,1603261206,65,-20.52,57.52,80.6,80.6,80.6,14.99
Moose Factory,1,CA,1603261206,79,51.26,-80.61,28.4,28.4,28.4,4.7
Sitka,75,US,1603261207,86,57.05,-135.33,37.4,37.4,37.4,5.82
Honiara,40,SB,1603261073,66,-9.43,159.95,87.8,87.8,87.8,6.93
Itacaré,100,BR,1603261207,88,-14.28,-39.0,72.32,72.32,72.32,2.64
Amalāpuram,100,IN,1603261207,58,16.58,82.02,91.24,91.24,91.24,2.91
Kulhudhuffushi,20,MV,1603261208,79,6.62,73.07,82.26,82.26,82.26,12.06
Fuchu,18,JP,1603261208,45,35.67,139.48,67.3,66.0,68.0,9.17
Redmond,70,US,1603261109,95,47.67,-122.12,45.95,44.01,48.0,2.13
Antigonish,94,CA,1603261208,89,45.62,-62.0,55.29,55.0,55.99,5.26
Bilma,0,NE,1603261208,16,18.69,12.92,80.38,80.38,80.38,7.61
Yatou,53,CN,1603261209,53,37.15,122.38,69.1,69.1,69.1,15.03
Geraldton,90,AU,1603261209,60,-28.77,114.6,69.8,69.8,69.8,17.22
Changji,0,CN,1603261209,24,44.02,87.32,55.4,55.4,55.4,2.24
São José da Coroa Grande,81,BR,1603261209,86,-8.9,-35.15,75.6,75.6,75.6,9.15
Talakan,100,RU,1603261210,71,50.32,130.37,49.59,49.59,49.59,13.38
Kralendijk,100,BQ,1603261033,88,12.15,-68.27,78.8,78.8,78.8,2.24
La Palma,1,US,1603261108,88,33.85,-118.05,65.07,64.0,66.0,3.6
Kazanka,4,UA,1603261211,81,47.85,32.82,42.4,42.01,42.8,2.24
Copiapó,0,CL,1603261211,87,-27.37,-70.33,53.6,53.6,53.6,10.29
Tateyama,40,JP,1603261211,56,34.98,139.87,69.39,68.0,70.0,18.34
Lexington,1,US,1603260955,93,37.99,-84.48,59.34,57.99,60.8,6.93
São João da Barra,41,BR,1603261153,89,-21.64,-41.05,71.33,71.33,71.33,5.73
Port Macquarie,6,AU,1603261148,45,-31.43,152.92,75.0,75.0,75.0,1.99
Hadejia,2,NG,1603261212,22,12.45,10.04,79.39,79.39,79.39,4.56
Revelstoke,90,CA,1603261212,100,50.98,-118.2,37.4,37.4,37.4,3.6
Sola,90,VU,1603261212,94,-13.88,167.55,78.8,78.8,78.8,13.8
Teocaltiche,2,MX,1603261212,56,21.43,-102.58,60.84,60.84,60.84,5.99
Hong Kong,39,HK,1603261048,59,22.29,114.16,78.39,66.99,82.0,3.0
Bolobo,93,CD,1603261213,88,-2.17,16.23,73.31,73.31,73.31,5.01
Leshukonskoye,70,RU,1603261213,98,64.9,45.76,27.3,27.3,27.3,2.33
Manado,20,ID,1603261084,59,1.49,124.85,91.4,91.4,91.4,6.93
Lüderitz,0,NA,1603261040,27,-26.65,15.16,69.17,69.17,69.17,7.16
Taoudenni,0,ML,1603261071,20,22.68,-3.98,74.44,74.44,74.44,8.3
Bandarbeyla,16,SO,1603261214,49,9.49,50.81,85.12,85.12,85.12,9.48
Benguela,79,AO,1603261214,81,-12.58,13.41,73.78,73.78,73.78,4.68
Leh,0,IN,1603261214,37,34.17,77.58,46.54,46.54,46.54,3.89
Opuwo,0,NA,1603261215,22,-18.06,13.84,71.56,71.56,71.56,2.17
Yulara,0,AU,1603261133,8,-25.24,130.99,100.4,100.4,100.4,17.22
Turbat,0,PK,1603261215,7,26.0,63.04,92.93,92.93,92.93,23.58
Rundu,6,NA,1603261215,17,-17.93,19.77,77.7,77.7,77.7,3.0
Vostok,100,RU,1603261216,55,46.49,135.88,51.46,51.46,51.46,5.3
Yumen,0,CN,1603261216,21,40.28,97.2,65.64,65.64,65.64,16.15
Chengzhong,67,CN,1603261216,63,30.95,113.55,66.2,66.2,66.2,6.71
Goderich,100,CA,1603261024,86,43.75,-81.72,46.0,46.0,46.0,24.81
Provideniya,75,RU,1603261217,87,64.38,-173.3,42.8,42.8,42.8,8.95
Katherine,40,AU,1603261217,27,-14.47,132.27,100.4,100.4,100.4,5.82
Santa Maria,72,BR,1603261217,78,-29.68,-53.81,66.04,66.04,66.04,11.23
Schisma Eloundas,75,GR,1603261217,93,35.27,25.72,65.19,60.8,69.01,3.36
Atikokan,100,CA,1603261218,98,48.76,-91.62,29.5,29.5,29.5,6.51
Adrar,0,MR,1603261218,20,20.5,-10.07,79.43,79.43,79.43,5.06
Qasigiannguit,100,GL,1603261218,80,68.82,-51.19,33.8,33.8,33.8,9.17
Lodwar,88,KE,1603261219,41,3.12,35.6,87.94,87.94,87.94,17.02
Lavrentiya,58,RU,1603261045,90,65.58,-171.0,37.56,37.56,37.56,8.05
Buin,0,CL,1603261219,58,-33.73,-70.75,58.77,57.2,61.0,3.36
Kapoeta,80,SS,1603261219,62,4.77,33.59,80.85,80.85,80.85,1.52
Menongue,16,AO,1603261219,27,-14.66,17.69,73.06,73.06,73.06,6.91
Sarh,96,TD,1603261220,83,9.14,18.39,75.2,75.2,75.2,6.93
Kisangani,90,CD,1603261220,94,0.52,25.2,71.6,71.6,71.6,2.35
Iwanai,58,JP,1603261221,57,42.97,140.51,59.31,59.31,59.31,4.0
Codrington,67,AU,1603261221,73,-38.27,141.97,57.42,57.42,57.42,9.66
Châteauneuf-les-Martigues,97,FR,1603261221,67,43.38,5.17,62.02,60.8,63.0,8.05
Vrangel',100,RU,1603261221,77,42.73,133.08,59.54,59.54,59.54,18.39
Ngorongoro,89,TZ,1603261221,78,-3.24,35.49,55.47,55.47,55.47,6.58
Rimbey,90,CA,1603261222,100,52.63,-114.24,28.4,28.4,28.4,5.82
Altay,0,CN,1603261222,36,47.87,88.12,53.8,53.8,53.8,3.31
São Filipe,75,CV,1603261222,69,14.9,-24.5,82.0,82.0,82.0,3.98
Yabrūd,0,SY,1603261223,36,33.97,36.66,63.82,60.8,68.0,2.24
Yakuplu,75,TR,1603261223,72,40.99,28.68,65.61,64.4,66.2,18.34
Bumba,100,CD,1603261223,96,2.18,22.47,72.14,72.14,72.14,1.1
Paita,15,PE,1603261223,82,-5.09,-81.11,63.73,63.73,63.73,9.37
Asău,9,RO,1603260967,93,46.43,26.4,40.03,39.0,41.0,13.87
Arraial do Cabo,17,BR,1603261128,89,-22.97,-42.03,71.8,71.8,71.8,15.73
Yantal',99,RU,1603261224,85,56.85,105.25,34.93,34.93,34.93,8.5
Rørvik,75,NO,1603261224,74,64.86,11.24,35.6,35.6,35.6,9.17
Maués,84,BR,1603261224,76,-3.38,-57.72,76.51,76.51,76.51,2.59
Aksu,0,CN,1603261225,24,41.12,80.26,65.39,65.39,65.39,3.24
Departamento de Maldonado,43,UY,1603261190,81,-34.67,-54.92,53.8,53.6,54.0,14.99
Harper,82,LR,1603261225,85,4.38,-7.72,76.44,76.44,76.44,4.09
Blythe,1,US,1603261225,18,33.61,-114.6,71.33,71.01,71.6,6.93
Leninsk,0,RU,1603261225,57,48.71,45.2,41.0,41.0,41.0,11.18
Bonfim,88,BR,1603261226,65,3.08,-59.95,81.01,81.01,81.01,6.91
Acajutla,95,SV,1603261226,100,13.59,-89.83,68.0,68.0,68.0,4.85
Holland,90,US,1603261192,87,42.79,-86.11,50.02,48.99,51.01,5.82
Coruripe,34,BR,1603261227,81,-10.13,-36.18,75.0,75.0,75.0,7.94
Ukiah,1,US,1603261227,48,39.15,-123.21,62.46,55.99,66.99,3.02
Tucumcari,1,US,1603261227,22,35.17,-103.72,64.4,64.4,64.4,12.75
Magalia,1,US,1603261227,28,39.81,-121.58,70.02,69.01,71.6,4.7
Safaga,0,EG,1603261228,61,26.73,33.94,77.0,77.0,77.0,6.93
Ilek,59,RU,1603261228,60,51.53,53.38,43.5,43.5,43.5,12.41
Nome,90,US,1603261175,86,64.5,-165.41,37.94,36.0,41.0,6.93
Vechelde,90,DE,1603261228,87,52.26,10.36,52.27,51.8,53.01,3.36
Katsuura,20,JP,1603261033,63,35.13,140.3,66.87,66.0,69.01,16.11
Eureka,3,US,1603261229,100,40.8,-124.16,52.36,52.0,53.01,9.35
Tura,9,IN,1603261229,83,25.52,90.22,82.38,82.38,82.38,1.95
Kirakira,76,SB,1603261229,70,-10.45,161.92,82.99,82.99,82.99,6.6
Saldanha,0,ZA,1603261160,87,-33.01,17.94,44.6,44.6,44.6,3.36
Maceió,75,BR,1603261230,94,-9.67,-35.74,71.6,71.6,71.6,3.36
Fort Nelson,40,CA,1603261230,72,58.81,-122.7,14.0,14.0,14.0,5.82
Straumen,75,NO,1603261230,93,63.87,11.3,36.77,35.6,39.0,6.93
Coquimbo,0,CL,1603260999,93,-29.95,-71.34,51.8,51.8,51.8,3.87
Jiwani,0,PK,1603261231,19,25.05,61.74,87.57,87.57,87.57,19.95
Arrondissement de Dreux,100,FR,1603261231,87,48.67,1.25,57.07,57.0,57.2,12.75
Kudahuvadhoo,10,MV,1603261231,78,2.67,72.89,82.78,82.78,82.78,12.91
Marawi,98,PH,1603261203,55,8.0,124.29,89.01,89.01,89.01,8.01
Mackay,2,AU,1603260939,54,-21.15,149.2,84.2,84.2,84.2,16.11
Ancud,0,CL,1603261014,80,-41.87,-73.82,37.58,35.6,39.99,5.82
North Bend,1,US,1603261190,100,43.41,-124.22,51.33,48.99,53.01,5.39
Havelock,1,US,1603261232,94,34.88,-76.9,67.39,66.0,69.01,3.36
Leningradskiy,52,RU,1603261232,84,69.38,178.42,35.11,35.11,35.11,8.39
Salta,90,AR,1603261089,82,-24.79,-65.41,64.4,64.4,64.4,2.24
Williston,1,US,1603261201,79,48.15,-103.62,20.26,18.0,23.0,9.17
Dolores,0,AR,1603261233,67,-36.31,-57.68,41.13,41.13,41.13,6.78
Evensk,84,RU,1603261133,93,61.95,159.23,32.11,32.11,32.11,2.89
Vila Franca do Campo,20,PT,1603261140,67,37.72,-25.43,60.8,60.8,60.8,11.41
Tabas,0,IR,1603261233,11,33.6,56.92,68.0,68.0,68.0,2.24
Himarë,0,AL,1603261234,93,40.1,19.74,50.74,50.0,51.8,2.24
Sobolevo,100,RU,1603261130,83,54.43,31.9,37.56,37.56,37.56,9.04
Ninotsminda,91,GE,1603261234,50,41.26,43.59,55.4,55.4,55.4,5.82
Hofn,13,IS,1603261235,75,64.25,-15.21,35.74,35.74,35.74,5.17
Jauja,57,PE,1603261235,68,-11.78,-75.5,49.1,49.1,49.1,4.47
Walvis Bay,90,NA,1603261089,82,-22.96,14.51,57.56,57.2,57.99,10.29
Huéscar,81,ES,1603261235,70,37.81,-2.54,56.48,55.0,57.99,4.92
Fraserburgh,83,GB,1603261235,87,57.69,-2.02,52.0,52.0,52.0,5.99
Guaratinga,75,BR,1603261236,88,-16.57,-39.57,73.4,73.4,73.4,3.36
Ngozi,96,BI,1603261236,87,-2.91,29.83,63.46,63.46,63.46,2.3
Saint-Pierre,5,RE,1603261236,51,-21.34,55.48,78.98,73.0,82.4,23.04
Qena,0,EG,1603261236,33,26.16,32.72,71.6,71.6,71.6,4.88
Baturaja,66,ID,1603261237,45,-4.13,104.17,95.43,95.43,95.43,3.53
Tobol'sk,98,RU,1603261237,76,58.2,68.27,37.9,37.9,37.9,6.2
Pangoa,75,PE,1603261237,96,-12.12,-73.0,66.9,66.9,66.9,2.06
Awjilah,0,LY,1603261208,74,29.11,21.29,62.91,62.91,62.91,9.89
Ciudad de Armería,76,MX,1603261237,88,18.93,-103.97,79.14,79.14,79.14,2.1
Los Llanos de Aridane,40,ES,1603261238,53,28.66,-17.92,65.86,61.0,73.4,17.22
Solwezi,1,ZM,1603261238,41,-12.17,26.39,75.63,75.63,75.63,3.0
Campbell River,75,CA,1603261238,87,50.02,-125.24,45.39,43.0,48.2,3.36
Sibiti,100,CG,1603261239,99,-3.68,13.35,70.38,70.38,70.38,2.62
Umm Kaddadah,30,SD,1603261239,14,13.6,26.69,84.69,84.69,84.69,20.69
Maun,0,BW,1603261239,15,-19.98,23.42,80.6,80.6,80.6,3.36
Molteno,17,ZA,1603261240,51,-31.4,26.36,51.93,51.93,51.93,5.17
Kumul,0,CN,1603261240,22,42.8,93.45,67.03,67.03,67.03,5.95
Buala,92,SB,1603261240,70,-8.14,159.59,84.18,84.18,84.18,5.53
Iraquara,22,BR,1603261240,86,-12.25,-41.62,65.14,65.14,65.14,7.29
Camacha,40,PT,1603261241,72,33.08,-16.33,64.4,64.4,64.4,10.29
Rincon,90,US,1603261241,94,32.3,-81.24,70.45,70.0,71.6,6.93
Ketchikan,90,US,1603261241,100,55.34,-131.65,39.92,39.2,41.0,3.36
Markova,97,UA,1603261192,68,48.68,24.41,33.8,33.8,33.8,2.24
Buchanan,75,LR,1603261241,94,5.88,-10.05,77.0,77.0,77.0,4.72
Fairbanks,90,US,1603261070,85,64.84,-147.72,21.04,19.99,21.99,0.76
Bokoro,0,TD,1603261242,18,12.38,17.06,81.5,81.5,81.5,8.79
Houma,1,US,1603261234,94,29.6,-90.72,71.31,71.01,72.0,3.36
Punta Alta,2,AR,1603261033,63,-38.88,-62.07,48.81,48.81,48.81,14.0
Vaitape,4,PF,1603261243,78,-16.52,-151.75,79.83,79.83,79.83,14.23
Bonavista,97,CA,1603261243,86,48.65,-53.11,56.79,56.79,56.79,20.76
Lompoc,90,US,1603261190,93,34.64,-120.46,55.96,55.0,57.2,5.86
Mahon,20,ES,1603261085,88,39.89,4.27,68.0,68.0,68.0,12.75
Andros Town,90,BS,1603261145,88,24.7,-77.77,77.0,77.0,77.0,11.41
Eydhafushi,71,MV,1603261244,79,5.1,73.07,82.29,82.29,82.29,12.97
Deputatsky,97,RU,1603261220,94,69.3,139.9,6.75,6.75,6.75,1.43
Olinda,75,BR,1603261245,88,-8.01,-34.86,75.2,75.2,75.2,5.82
Labuan,20,MY,1603261245,66,5.28,115.24,89.29,89.01,89.6,4.7
Kuznechnoye,98,RU,1603261209,93,61.12,29.87,30.99,30.99,30.99,4.85
Nemuro,20,JP,1603261246,71,43.32,145.57,55.4,55.4,55.4,12.75
Saint-François,100,FR,1603261246,55,46.42,3.91,62.78,62.6,63.0,21.92
Bolivar,100,US,1603260981,99,37.61,-93.41,53.01,52.0,54.0,4.0
Boyolangu,78,ID,1603261247,78,-8.12,111.89,81.75,81.75,81.75,9.35
Plouzané,100,FR,1603261247,100,48.38,-4.62,57.2,57.2,57.2,4.7
Makkah al Mukarramah,0,SA,1603261231,11,21.43,39.83,91.13,91.13,91.13,3.49
Tuktoyaktuk,90,CA,1603261248,85,69.45,-133.04,23.0,23.0,23.0,17.22
Pokhara,0,NP,1603261248,43,28.23,83.98,81.68,81.68,81.68,5.95
Severo-Kuril'sk,53,RU,1603261248,68,50.68,156.12,41.63,41.63,41.63,24.92
Gharo,0,PK,1603261248,19,24.74,67.59,87.8,87.8,87.8,5.82
Margate,100,GB,1603261004,95,51.38,1.39,55.99,55.99,55.99,8.01
Tilichiki,100,RU,1603261249,94,60.47,166.1,38.1,38.1,38.1,9.66
Korla,0,CN,1603261249,25,41.76,86.15,64.8,64.8,64.8,10.92
Bulolo,89,PG,1603261250,67,-7.2,146.65,80.91,80.91,80.91,1.23
Aykino,93,RU,1603261250,98,62.22,49.99,28.51,28.51,28.51,5.1
Bolu Province,78,TR,1603261250,66,40.67,31.58,56.28,56.28,56.28,2.64
Yerbogachën,100,RU,1603261251,91,61.28,108.01,24.53,24.53,24.53,9.42
Lufilufi,40,WS,1603261251,88,-13.87,-171.6,80.29,80.01,80.6,16.84
Porto Santo,40,PT,1603261251,72,33.07,-16.34,64.4,64.4,64.4,10.29
Wahpeton,90,US,1603261252,86,46.27,-96.61,33.58,33.01,34.0,14.99
Taksimo,76,RU,1603261252,76,56.34,114.88,28.8,28.8,28.8,3.65
Atar,1,MR,1603261252,30,20.52,-13.05,82.4,82.4,82.4,6.8
Mosquera,75,CO,1603261253,76,4.71,-74.23,57.2,57.2,57.2,6.93
Agüimes,40,ES,1603261214,73,27.91,-15.45,70.65,69.01,71.6,1.12
Haukipudas,90,FI,1603261253,92,65.18,25.35,26.6,26.6,26.6,12.75
Yar-Sale,100,RU,1603261208,98,66.83,70.83,27.01,27.01,27.01,6.06
Tautira,40,PF,1603261254,74,-17.73,-149.15,78.4,78.01,78.8,5.82
Iqaluit,90,CA,1603261254,96,63.75,-68.51,32.0,32.0,32.0,5.82
Pacific Grove,90,US,1603261029,100,36.62,-121.92,53.08,51.8,53.6,3.36
Prado,98,BR,1603261255,94,-17.34,-39.22,71.64,71.64,71.64,3.13
Bonthe,45,SL,1603261255,86,7.53,-12.51,77.02,77.02,77.02,1.1
Daru,75,PG,1603261256,73,-9.08,143.21,82.29,82.29,82.29,11.07
Cayenne,20,GF,1603261134,100,4.93,-52.33,75.2,75.2,75.2,9.51
Taguatinga,92,BR,1603261256,58,-12.39,-46.57,78.4,78.4,78.4,5.21
Seoul,75,KR,1603261230,55,37.57,126.98,63.16,62.6,64.4,6.2
Shihezi,0,CN,1603261257,30,44.3,86.03,58.14,58.14,58.14,4.99
Mossamedes,99,AO,1603261257,85,-15.2,12.15,68.5,68.5,68.5,6.8
Raja,100,SS,1603261257,87,8.46,25.68,72.07,72.07,72.07,4.16
Khanbari,0,NP,1603261258,42,27.37,87.2,81.82,81.82,81.82,4.92
Loandjili,90,CG,1603261258,94,-4.76,11.86,75.2,75.2,75.2,2.24
Port Hedland,100,AU,1603261258,51,-20.32,118.57,86.0,86.0,86.0,21.92
Cairns,2,AU,1603261009,48,-16.92,145.77,85.12,84.2,86.0,10.29
Haines Junction,99,CA,1603261259,89,60.75,-137.51,25.74,25.74,25.74,2.98
Lincoln,1,US,1603260994,93,40.8,-96.67,38.44,35.6,41.0,4.25
Ambilobe,81,MG,1603261089,36,-13.2,49.05,91.26,91.26,91.26,4.14
Presidencia Roque Sáenz Peña,40,AR,1603261260,88,-26.79,-60.44,72.81,72.81,72.81,6.44
Pundaguitan,20,PH,1603261100,74,6.37,126.17,85.14,85.14,85.14,15.21
Mazatlán,40,MX,1603261212,88,23.22,-106.42,84.36,80.6,86.0,4.7
Flinders,40,AU,1603261260,56,-34.58,150.86,69.35,64.0,73.4,17.22
La Sarre,100,CA,1603261261,96,48.8,-79.2,30.2,30.2,30.2,6.85
Creel,0,MX,1603261261,50,27.75,-107.63,51.89,51.89,51.89,2.64
Saquarema,15,BR,1603261261,91,-22.92,-42.51,68.88,68.88,68.88,7.61
Ostrovnoy,100,RU,1603261261,82,68.05,39.51,35.91,35.91,35.91,11.18
Jalu,0,LY,1603261262,70,29.03,21.55,63.86,63.86,63.86,10.25
Riyadh,0,SA,1603261262,16,24.69,46.72,80.6,80.6,80.6,6.93
Tsuruoka,75,JP,1603261262,48,38.72,139.82,66.2,66.2,66.2,19.46
Brownsville,75,US,1603261262,88,25.9,-97.5,76.06,75.0,77.0,4.7
Oodweyne,19,SO,1603261263,17,9.41,45.06,79.48,79.48,79.48,5.55
Turukhansk,100,RU,1603261263,98,65.82,87.98,24.04,24.04,24.04,13.09
Cockburn Town,84,TC,1603260994,79,21.46,-71.14,81.18,81.18,81.18,15.66
Roald,75,NO,1603261210,86,62.58,6.13,40.15,39.0,41.0,14.99
Zhigansk,100,RU,1603261264,97,66.77,123.37,19.2,19.2,19.2,3.2
Batemans Bay,99,AU,1603261264,52,-35.72,150.18,70.63,66.0,73.0,4.0
Kavaratti,40,IN,1603261264,74,10.57,72.64,84.2,84.2,84.2,5.82
Muzhi,99,RU,1603261108,97,65.37,64.67,19.35,19.35,19.35,4.45
Talnakh,52,RU,1603261265,92,69.49,88.4,8.6,8.6,8.6,6.71
Shache,0,CN,1603261265,20,38.42,77.24,67.59,67.59,67.59,0.78
Maksatikha,16,RU,1603261265,97,57.8,35.88,31.82,31.82,31.82,5.06
Juba,55,SS,1603261265,84,4.85,31.58,75.61,75.61,75.61,5.26
Damāvand,0,IR,1603261266,11,35.72,52.06,69.31,69.01,69.8,9.17
Pāsighāt,18,IN,1603260982,55,28.07,95.33,85.15,85.15,85.15,3.65
Kédougou,22,SN,1603261266,81,12.56,-12.17,73.65,73.65,73.65,3.2
Warri,99,NG,1603261266,95,5.52,5.75,76.66,76.66,76.66,1.52
Touros,75,BR,1603261267,94,-5.2,-35.46,73.4,73.4,73.4,4.7
Saint George,1,US,1603261233,16,37.1,-113.58,60.87,59.0,62.6,5.82
Wanaka,4,NZ,1603261267,55,-44.7,169.15,55.85,55.85,55.85,8.28
Kuala Sungai Baru,20,MY,1603261268,62,2.36,102.04,89.31,89.01,89.6,5.82
Zacualpan,85,MX,1603261268,89,21.25,-105.17,84.0,84.0,84.0,3.74
Khāsh,0,IR,1603261268,10,28.22,61.22,75.13,75.13,75.13,15.79
Stromness,90,GB,1603261269,93,58.97,-3.3,48.2,48.2,48.2,29.97
Kahului,1,US,1603261269,65,20.89,-156.47,73.53,70.0,77.0,3.36
Kaitangata,50,NZ,1603261269,64,-46.28,169.85,52.02,52.02,52.02,3.44
Verkhnyaya Balkariya,90,RU,1603261270,71,43.13,43.46,50.0,50.0,50.0,2.24
Smithers,90,CA,1603261270,94,54.78,-127.17,32.0,32.0,32.0,2.24
Beibei,75,CN,1603261271,72,29.83,106.43,67.23,64.4,71.01,2.24
Ridgecrest,1,US,1603261114,17,35.62,-117.67,63.21,61.0,66.2,5.82
Simbahan,90,PH,1603261271,75,6.3,120.58,84.29,84.29,84.29,15.08
Macheng,95,CN,1603261272,50,31.18,115.03,70.27,70.27,70.27,4.45
Barcelona,20,ES,1603261113,88,41.39,2.16,67.55,64.0,70.0,6.93
Kwang Binh,100,VN,1603261272,87,17.48,106.6,69.1,69.1,69.1,14.25
Taft,0,IR,1603261272,11,31.75,54.21,66.2,66.2,66.2,6.93
Athens,40,GR,1603260977,72,37.98,23.72,62.56,60.01,64.99,9.17
Yagodnoye,0,RU,1603261273,82,62.55,149.67,13.95,13.95,13.95,0.94
Rio Grande,100,BR,1603261273,85,-32.03,-52.1,62.01,62.01,62.01,5.99
Nara,40,JP,1603261274,44,34.69,135.8,73.87,73.0,75.2,12.75
Mulegé,0,MX,1603261274,55,26.88,-111.98,79.18,79.18,79.18,2.66
Shizunai-furukawachō,16,JP,1603261274,71,42.33,142.37,57.07,57.07,57.07,8.48
Ulaanbaatar,40,MN,1603261275,50,47.91,106.88,30.2,30.2,30.2,15.66
Havøysund,75,NO,1603261275,100,71.0,24.66,30.27,26.6,33.8,2.24
Talas,20,TR,1603261275,76,38.69,35.55,53.6,53.6,53.6,10.29
Kiryat Gat,19,IL,1603261276,100,31.61,34.76,76.69,75.99,77.0,4.0
Tupanatinga,12,BR,1603261276,96,-8.75,-37.34,61.99,61.99,61.99,7.47
Preobrazheniye,100,RU,1603261276,76,42.9,133.91,58.82,58.82,58.82,12.55
Narasannapeta,70,IN,1603261276,66,18.42,84.05,87.94,87.94,87.94,7.85
Inyonga,100,TZ,1603261277,56,-6.72,32.07,72.82,72.82,72.82,5.68
Sumenep,50,ID,1603261277,53,-7.02,113.87,88.84,88.84,88.84,8.52
Sagamu,20,NG,1603261277,100,6.84,3.65,77.0,77.0,77.0,4.7
Denpasar,40,ID,1603261221,70,-8.65,115.22,86.0,86.0,86.0,13.87
Bariloche,40,AR,1603261278,53,-41.15,-71.31,53.56,51.8,55.0,10.29
Man,22,CI,1603261278,94,7.41,-7.55,69.01,69.01,69.01,1.12
Eyl,0,SO,1603261279,60,7.98,49.82,85.33,85.33,85.33,10.65
Tūkrah,28,LY,1603261279,58,32.53,20.58,69.44,69.44,69.44,11.21
Narsaq,100,GL,1603261012,91,60.92,-46.05,32.0,32.0,32.0,0.85
Skibbereen,40,IE,1603261279,93,51.55,-9.27,44.6,44.6,44.6,4.7
Half Moon Bay,1,US,1603261068,59,37.46,-122.43,61.16,55.99,64.99,2.26
Grindavik,90,IS,1603261073,86,63.84,-22.43,37.4,37.4,37.4,6.93
Albert Lea,90,US,1603261280,100,43.65,-93.37,37.49,36.0,39.2,4.7
Kiama,40,AU,1603261281,56,-34.68,150.87,69.03,64.0,73.4,17.22
Marshall,1,US,1603261281,88,34.38,-86.33,61.52,59.0,63.0,3.36
Husavik,63,IS,1603261281,92,66.04,-17.34,26.6,26.6,26.6,3.36
‘Ewa Beach,1,US,1603261281,74,21.32,-158.01,78.98,73.4,80.6,4.7
Launceston,84,AU,1603261282,59,-41.45,147.17,61.05,60.01,63.0,6.93
Aranos,66,NA,1603261282,22,-24.13,19.12,68.68,68.68,68.68,9.98
Hurricane,0,US,1603261283,25,37.18,-113.29,60.66,59.0,62.01,3.51
Okahandja,0,NA,1603261283,19,-21.98,16.92,69.8,69.8,69.8,8.05
Tevriz,97,RU,1603261283,74,57.51,72.4,45.09,45.09,45.09,4.81
Beloha,0,MG,1603261283,35,-25.17,45.05,85.55,85.55,85.55,3.94
Idanre,94,NG,1603261284,99,7.11,5.12,71.22,71.22,71.22,1.74
Gamba,99,GA,1603261284,88,-2.65,10.0,76.73,76.73,76.73,3.71
Kothāpet,1,IN,1603261284,68,19.33,79.48,85.12,85.12,85.12,8.5
San Patricio,20,US,1603261285,94,28.02,-97.52,75.49,73.4,79.0,5.82
Xinyang,0,CN,1603261285,39,32.12,114.07,73.15,73.15,73.15,10.67
Bodītī,94,ET,1603261285,64,6.97,37.87,64.11,64.11,64.11,5.39
Sinnamary,100,GF,1603261157,83,5.38,-52.95,78.73,78.73,78.73,10.13
Barcelos,23,PT,1603261286,100,41.54,-8.62,55.98,55.0,57.0,10.0
Monduli,75,TZ,1603261286,82,-3.3,36.45,66.2,66.2,66.2,5.08
Olavarría,0,AR,1603261286,73,-36.89,-60.32,39.38,39.38,39.38,7.4
Port-Gentil,75,GA,1603261070,94,-0.72,8.78,77.0,77.0,77.0,4.7
Ciudad Bolivar,93,VE,1603261287,77,8.12,-63.55,79.02,79.02,79.02,7.2
Watertown,90,US,1603261052,93,42.37,-71.18,58.69,57.0,60.01,3.36
Mocuba,2,MZ,1603261287,31,-16.84,36.99,91.18,91.18,91.18,8.23
Sur,0,OM,1603261090,40,22.57,59.53,85.17,85.17,85.17,11.9
Iwaki,77,JP,1603261288,57,37.05,140.88,63.14,57.99,66.0,4.0
Kargasok,100,RU,1603261288,84,59.06,80.86,45.3,45.3,45.3,10.76
Nanton,2,CA,1603261288,91,50.35,-113.77,21.78,19.99,24.01,5.01
Marsá Maţrūḩ,40,EG,1603261288,77,31.35,27.25,69.8,69.8,69.8,6.93
Tiznit Province,64,MA,1603261082,83,29.58,-9.5,63.84,63.84,63.84,0.45
Oranjemund,0,NA,1603261098,36,-28.55,16.43,65.17,65.17,65.17,11.3
Muroto-misakicho,20,JP,1603261289,57,33.28,134.15,75.2,75.2,75.2,17.22
Grand Island,1,US,1603261289,75,40.92,-98.34,44.76,44.01,45.0,4.7
Catuday,100,PH,1603261289,86,16.29,119.81,80.33,80.33,80.33,28.48
Jiuquan,0,CN,1603261290,23,39.74,98.52,63.07,63.07,63.07,6.62
Marsh Harbour,100,BS,1603261290,74,26.54,-77.06,81.09,81.09,81.09,24.2
Banda Aceh,67,ID,1603261290,55,5.56,95.32,87.89,87.89,87.89,13.73
San Antonio,90,US,1603261291,88,29.42,-98.49,72.9,71.6,73.99,5.82
Kawerau,100,NZ,1603261291,92,-38.1,176.7,63.21,62.01,64.0,2.98
Marzuq,1,YE,1603261292,19,14.4,46.47,76.21,76.21,76.21,5.66
Laas,40,IT,1603261292,93,46.62,10.7,43.02,37.4,48.99,5.82
Udaipura,55,IN,1603261292,29,23.08,78.5,88.99,88.99,88.99,6.35
Tema,47,GH,1603261293,88,5.67,-0.02,75.2,75.2,75.2,10.29
Kolpashevo,100,RU,1603261293,80,58.31,82.91,46.49,46.49,46.49,11.41
Craig,1,US,1603261290,64,40.52,-107.55,36.55,33.8,41.0,1.92
Medicine Hat,75,CA,1603261201,79,50.05,-110.67,25.95,24.8,27.0,2.24
Tarakan,100,ID,1603261294,77,3.3,117.63,81.82,81.82,81.82,6.49
Shiozawa,0,JP,1603261294,59,37.03,138.85,63.36,59.0,66.99,9.6
South Kazakhstan Region,0,KZ,1603261198,23,43.0,68.0,68.94,68.94,68.94,10.76
Ostroh,96,UA,1603261294,80,50.33,26.51,41.0,41.0,41.0,4.47
Clyde River,90,CA,1603261173,86,70.47,-68.59,28.4,28.4,28.4,13.87
Santa Ana,90,US,1603261295,77,33.75,-117.87,65.07,62.01,68.0,2.46
Esmeraldas,90,BR,1603261211,100,-19.76,-44.31,62.6,62.6,62.6,4.7
Dalvik,89,IS,1603261295,92,65.97,-18.53,26.6,26.6,26.6,3.36
Verkhnevilyuysk,93,RU,1603261081,93,63.45,120.32,24.71,24.71,24.71,4.52
Centralia,1,US,1603261296,100,46.72,-122.95,42.12,37.99,44.6,2.44
Nabire,100,ID,1603261296,87,-3.37,135.48,78.48,78.48,78.48,2.26
Starkville,1,US,1603261297,100,33.45,-88.82,61.27,59.0,63.0,3.83
Yangi Marg`ilon,0,UZ,1603261164,32,40.43,71.72,66.2,66.2,66.2,4.7
Daura,5,NG,1603261297,34,11.55,11.41,77.29,77.29,77.29,2.59
